[{"name": "砂师弟砂锅牛腩煲(壹方城店)", "address": "新湖路壹方城购物中心负二楼", "avgprice": 58, "category": "东北菜", "shopid": 95962731, "score1": "7.4", "score2": "7.7", "score3": "7.0", "lng": 113.887298, "lat": 22.553422}, {"name": "辽河渡口", "address": "宝安南路1881号万象城华润大厦3楼", "avgprice": 189, "category": "东北菜", "shopid": 93576509, "score1": "6.8", "score2": "8.1", "score3": "6.7", "lng": 114.11122270141072, "lat": 22.541390578153376}, {"name": "小南洋(深圳湾店)", "address": "海德三道3001号深圳湾木棉花酒店21楼", "avgprice": 172, "category": "东北菜", "shopid": 6852376, "score1": "8.0", "score2": "9.1", "score3": "8.1", "lng": 113.947153, "lat": 22.519045}, {"name": "胖小厨", "address": "八卦一路美食街39号", "avgprice": 64, "category": "东北菜", "shopid": 74632795, "score1": "8.2", "score2": "8.8", "score3": "8.0", "lng": 114.10243, "lat": 22.55689}, {"name": "老根山庄(深圳总店)", "address": "华富街道红荔西路莲花三村现代苑二楼", "avgprice": 78, "category": "东北菜", "shopid": 57875377, "score1": "7.7", "score2": "8.3", "score3": "7.7", "lng": 114.070388, "lat": 22.547958}, {"name": "东北老厨", "address": "粤海街道东滨路南门一坊商业街B201-B209", "avgprice": 0, "category": "东北菜", "shopid": 97214774, "score1": "8.0", "score2": "8.0", "score3": "8.0", "lng": 113.927556, "lat": 22.505146}, {"name": "东北人粗粮饺子坊(南山店)", "address": "南海大道信和广场3楼", "avgprice": 72, "category": "东北菜", "shopid": 522341, "score1": "7.9", "score2": "7.7", "score3": "7.5", "lng": 113.924991, "lat": 22.506464}, {"name": "谷朴东北菜", "address": "蛇口望海路1128号海上世界广场B区201铺谷朴东北菜", "avgprice": 95, "category": "东北菜", "shopid": 17675253, "score1": "7.4", "score2": "7.8", "score3": "7.6", "lng": 113.91559, "lat": 22.48259}, {"name": "香满园春饼店", "address": "泰然四路63号", "avgprice": 72, "category": "东北菜", "shopid": 96201357, "score1": "7.1", "score2": "7.1", "score3": "7.1", "lng": 114.029484, "lat": 22.533928}, {"name": "老郑家东北春饼店(八卦岭店)", "address": "八卦一路美食街内，社区图书馆斜对面", "avgprice": 59, "category": "东北菜", "shopid": 525479, "score1": "7.9", "score2": "7.3", "score3": "7.0", "lng": 114.101244, "lat": 22.557366}, {"name": "东北新农村铁锅炖", "address": "白石路京基百纳广场东面中国银行对面军事管理区小巷进入200米", "avgprice": 72, "category": "东北菜", "shopid": 69618424, "score1": "7.5", "score2": "7.2", "score3": "7.3", "lng": 113.972794, "lat": 22.530583}, {"name": "四姐妹北方饺子馆(沙尾路店)", "address": "沙尾路元盛新苑3号", "avgprice": 55, "category": "东北菜", "shopid": 2526262, "score1": "7.9", "score2": "7.9", "score3": "8.1", "lng": 114.042193, "lat": 22.520419}, {"name": "老刘生态大鱼坊(香蜜湖店)", "address": "深南大道6068号香蜜湖度假村内", "avgprice": 203, "category": "东北菜", "shopid": 3282448, "score1": "7.2", "score2": "6.9", "score3": "7.0", "lng": 114.036805, "lat": 22.542031}, {"name": "小东北(龙华九方店)", "address": "人民路2020号龙华九方购物中心B1层", "avgprice": 60, "category": "东北菜", "shopid": 24342662, "score1": "7.1", "score2": "7.4", "score3": "7.2", "lng": 114.021296, "lat": 22.627722}, {"name": "大年初一东北菜馆", "address": "梅华路深华科技园底层商铺101号", "avgprice": 31, "category": "东北菜", "shopid": 67094555, "score1": "8.0", "score2": "8.2", "score3": "8.1", "lng": 114.049368, "lat": 22.564568}, {"name": "关东风北方菜馆(万科城店)", "address": "坂田万科商业城商业街C区1楼116号", "avgprice": 57, "category": "东北菜", "shopid": 9221857, "score1": "8.0", "score2": "8.1", "score3": "8.1", "lng": 114.067112, "lat": 22.645179}, {"name": "东北人(茂业奥特莱斯店)", "address": "和平路3009号茂业奥特莱斯1层", "avgprice": 67, "category": "东北菜", "shopid": 57393382, "score1": "7.5", "score2": "7.5", "score3": "7.1", "lng": 114.114327, "lat": 22.544242}, {"name": "鹏城老北方酒楼", "address": "解放路3034号湖北宾馆2楼", "avgprice": 78, "category": "东北菜", "shopid": 521820, "score1": "8.1", "score2": "7.5", "score3": "7.5", "lng": 114.112652, "lat": 22.544348}, {"name": "知味饺子馆", "address": "竹子林金民大厦1楼", "avgprice": 40, "category": "东北菜", "shopid": 4664486, "score1": "8.0", "score2": "7.6", "score3": "7.7", "lng": 114.0120504, "lat": 22.53549646}, {"name": "老北方食府(皇岗店)", "address": "福民路下围一村6号", "avgprice": 62, "category": "东北菜", "shopid": 16799437, "score1": "8.1", "score2": "8.0", "score3": "8.2", "lng": 114.063184, "lat": 22.524472}, {"name": "星怡会(万象天地店)", "address": "深南大道9668号万象天地B180", "avgprice": 125, "category": "东南亚菜", "shopid": 93801114, "score1": "8.6", "score2": "8.9", "score3": "8.8", "lng": 113.956116, "lat": 22.541373}, {"name": "泰炯音乐餐厅", "address": "福华一路怡景中心城L层1095号铺", "avgprice": 133, "category": "东南亚菜", "shopid": 38306504, "score1": "7.8", "score2": "9.1", "score3": "8.1", "lng": 114.059119, "lat": 22.535227}, {"name": "vita味塔东南亚菜·酒吧(coco park店)", "address": "福华三路269号COCOPARK4楼", "avgprice": 122, "category": "东南亚菜", "shopid": 7436933, "score1": "7.6", "score2": "8.7", "score3": "7.5", "lng": 114.053182, "lat": 22.534073}, {"name": "暹罗泰(皇庭店)", "address": "福华三路118号皇庭广场G层90号26A-26B", "avgprice": 181, "category": "东南亚菜", "shopid": 18008700, "score1": "8.4", "score2": "9.0", "score3": "8.4", "lng": 114.0605, "lat": 22.53311}, {"name": "冬阴功", "address": "太子路80号兴龙大厦1栋1层", "avgprice": 82, "category": "东南亚菜", "shopid": 13707523, "score1": "8.6", "score2": "7.1", "score3": "7.4", "lng": 113.91951, "lat": 22.48827}, {"name": "泰炙美见 · 新加坡料理｜long time and see(kk one店)", "address": "滨河大道9289号京基滨河时代北区2层248", "avgprice": 114, "category": "东南亚菜", "shopid": 66360425, "score1": "8.0", "score2": "8.6", "score3": "8.0", "lng": 114.026641, "lat": 22.528059}, {"name": "悦木越南料理(壹方城店)", "address": "新湖路与创业一路交汇处壹方城L2层085-087号商铺", "avgprice": 106, "category": "东南亚菜", "shopid": 92409840, "score1": "6.8", "score2": "7.4", "score3": "6.8", "lng": 113.887234, "lat": 22.552923}, {"name": "美奈小馆·越南料理(coco park店)", "address": "福华三路COCOParkL2-203", "avgprice": 97, "category": "东南亚菜", "shopid": 21043305, "score1": "8.2", "score2": "8.5", "score3": "8.0", "lng": 114.05357, "lat": 22.533}, {"name": "印象清迈(海岸城店)", "address": "海德二道22号海岸大厦东座一楼162号", "avgprice": 120, "category": "东南亚菜", "shopid": 15969979, "score1": "8.1", "score2": "8.7", "score3": "8.4", "lng": 113.937944, "lat": 22.517792}, {"name": "STARLEAF 星叶(益田假日广场店)", "address": "深南大道9028号华侨城威尼斯酒店旁益田假日广场2层L2-32-35", "avgprice": 168, "category": "东南亚菜", "shopid": 21300773, "score1": "7.9", "score2": "8.3", "score3": "7.5", "lng": 113.97399, "lat": 22.53808}, {"name": "越南仔餐厅", "address": "KKMALL京基百纳空间3楼L324铺", "avgprice": 79, "category": "东南亚菜", "shopid": 90461102, "score1": "7.6", "score2": "8.3", "score3": "7.9", "lng": 114.1066264168693, "lat": 22.54396560324388}, {"name": "星洲小聚(华强北九方店)", "address": "华强北街道中航华强北九方购物中心北区5层L508号铺", "avgprice": 107, "category": "东南亚菜", "shopid": 32304871, "score1": "7.4", "score2": "8.3", "score3": "7.3", "lng": 114.083353, "lat": 22.543232}, {"name": "蝦宴(壹方城店)", "address": "新湖路壹方城购物中心L2层033A", "avgprice": 0, "category": "东南亚菜", "shopid": 90602607, "score1": "7.5", "score2": "7.5", "score3": "7.2", "lng": 113.887286, "lat": 22.553532}, {"name": "鑫泰泰国料理(海岸城店)", "address": "文心五路33号海岸城购物中心5层", "avgprice": 121, "category": "东南亚菜", "shopid": 2366218, "score1": "7.7", "score2": "8.2", "score3": "7.7", "lng": 113.935732, "lat": 22.516911}, {"name": "Bollywood宝莱坞印度餐厅(华强北店)", "address": "振兴路9号桑达工业区405栋首层", "avgprice": 95, "category": "东南亚菜", "shopid": 18716575, "score1": "8.7", "score2": "9.0", "score3": "9.1", "lng": 114.092311, "lat": 22.546396}, {"name": "尚莲", "address": "宝安南路1881号华润万象城一期5层562", "avgprice": 185, "category": "东南亚菜", "shopid": 18341071, "score1": "8.5", "score2": "8.5", "score3": "8.5", "lng": 114.11039, "lat": 22.54045}, {"name": "SOI 22 二十二象", "address": "海田路32号", "avgprice": 98, "category": "东南亚菜", "shopid": 96044963, "score1": "8.0", "score2": "8.7", "score3": "8.4", "lng": 114.065871, "lat": 22.531891}, {"name": "野米东南亚餐厅(欢乐海岸店)", "address": "白石路东8号欢乐海岸购物中心1层F1-077", "avgprice": 153, "category": "东南亚菜", "shopid": 50613585, "score1": "7.5", "score2": "8.9", "score3": "7.8", "lng": 113.99064, "lat": 22.52625}, {"name": "小娘惹东南亚料理", "address": "坂田街道紫悦山花园万科里L1层星巴克旁边", "avgprice": 83, "category": "东南亚菜", "shopid": 92062149, "score1": "7.5", "score2": "8.9", "score3": "8.5", "lng": 114.072742, "lat": 22.617095}, {"name": "PappaRich金爸爸", "address": "车公庙东海缤纷天地B1楼", "avgprice": 86, "category": "东南亚菜", "shopid": 66421538, "score1": "7.6", "score2": "8.4", "score3": "7.8", "lng": 114.02015, "lat": 22.536687}, {"name": "TEA SPOONS茶匙舍(万象天地店)", "address": "深南大道万象天地L219", "avgprice": 49, "category": "其他", "shopid": 96293550, "score1": "7.9", "score2": "8.8", "score3": "8.9", "lng": 113.954456, "lat": 22.541063}, {"name": "十碗(保利店)", "address": "文心六路保利文化广场A区1楼49-03号铺", "avgprice": 59, "category": "其他中餐", "shopid": 96391156, "score1": "7.6", "score2": "7.8", "score3": "8.1", "lng": 113.938849, "lat": 22.517214}, {"name": "莆田餐厅(万象天地店)", "address": "深南大道9668号华润万象天地SL607", "avgprice": 135, "category": "其他中餐", "shopid": 93011104, "score1": "7.8", "score2": "8.9", "score3": "8.9", "lng": 113.95585, "lat": 22.541586}, {"name": "北京羲和雅苑烤鸭坊(万象天地店)", "address": "深南大道9668号华润城万象天地SL257号", "avgprice": 149, "category": "北京菜", "shopid": 95379691, "score1": "7.3", "score2": "8.2", "score3": "7.6", "lng": 113.956037, "lat": 22.541757}, {"name": "丁香胡同", "address": "深南大道9668号万象天地北区商铺NL218", "avgprice": 118, "category": "北京菜", "shopid": 93157478, "score1": "7.1", "score2": "7.3", "score3": "7.1", "lng": 113.954519, "lat": 22.541137}, {"name": "云海肴云南菜(海岸城店)", "address": "文心五路33号海岸城购物中心5层535号商铺", "avgprice": 88, "category": "云贵菜", "shopid": 23127112, "score1": "8.3", "score2": "8.8", "score3": "8.9", "lng": 113.935751, "lat": 22.517081}, {"name": "1949全鸭季(欢乐海岸购物中心店)", "address": "白石路东8号欢乐海岸购物中心3层3#", "avgprice": 544, "category": "北京菜", "shopid": 18722722, "score1": "8.2", "score2": "9.1", "score3": "8.7", "lng": 113.990016, "lat": 22.525825}, {"name": "桂小厨(壹方城店)", "address": "新安街道新湖路壹方城购物中心4楼", "avgprice": 81, "category": "广西菜", "shopid": 95395715, "score1": "8.3", "score2": "8.6", "score3": "8.1", "lng": 113.887196, "lat": 22.552891}, {"name": "wish梧桐(海岸城购物中心店)", "address": "文心五路33号海岸城购物中心4层423号", "avgprice": 277, "category": "北京菜", "shopid": 79359872, "score1": "8.3", "score2": "9.1", "score3": "9.1", "lng": 113.935551, "lat": 22.517226}, {"name": "绿茶(深圳万象城店)", "address": "宝安南路1881号华润万象城一期中区5层599", "avgprice": 65, "category": "其他中餐", "shopid": 18479174, "score1": "7.1", "score2": "7.9", "score3": "7.0", "lng": 114.11053670967465, "lat": 22.540449620006026}, {"name": "杏花堂山西菜馆(万象天地店)", "address": "深南大道9668号华润万象天地B134号", "avgprice": 76, "category": "山西菜", "shopid": 93740884, "score1": "7.1", "score2": "8.0", "score3": "7.3", "lng": 113.954395, "lat": 22.541084}, {"name": "拾味馆(COCO PARK店)", "address": "福华三路269号星河COCOPARK4楼", "avgprice": 103, "category": "其他中餐", "shopid": 4067053, "score1": "7.7", "score2": "8.3", "score3": "7.7", "lng": 114.054915, "lat": 22.532887}, {"name": "呐咪傣园", "address": "石厦西村113-1号", "avgprice": 79, "category": "云贵菜", "shopid": 91622150, "score1": "9.1", "score2": "8.5", "score3": "9.1", "lng": 114.049752, "lat": 22.521251}, {"name": "花悦庭", "address": "福田街道福华四路16号平安金融中心内第六层N606-N607号商铺", "avgprice": 0, "category": "北京菜", "shopid": 92769667, "score1": "7.4", "score2": "7.4", "score3": "7.4", "lng": 114.0554700093302, "lat": 22.532810202867296}, {"name": "星美乐(万象天地店)", "address": "深南大道华润城万象天地", "avgprice": 90, "category": "其他", "shopid": 93288721, "score1": "7.6", "score2": "8.3", "score3": "7.5", "lng": 113.955932, "lat": 22.541922}, {"name": "同顺居北京菜馆(中心城店)", "address": "福华一路3号怡景中心城一楼西大门l1004", "avgprice": 113, "category": "北京菜", "shopid": 23125995, "score1": "7.5", "score2": "8.1", "score3": "7.4", "lng": 114.059106, "lat": 22.53632}, {"name": "皖厨(欢乐海岸购物中心店)", "address": "白石路东8号欢乐海岸购物中心2层", "avgprice": 87, "category": "徽菜", "shopid": 19671441, "score1": "7.6", "score2": "8.4", "score3": "7.4", "lng": 113.990326, "lat": 22.525299}, {"name": "小贝壳餐坊", "address": "新闻路12号五洲星苑A栋2楼", "avgprice": 154, "category": "湖北菜", "shopid": 3876415, "score1": "8.0", "score2": "8.8", "score3": "7.7", "lng": 114.045471, "lat": 22.541865}, {"name": "那时我的大学，湖北味道", "address": "石厦街马成时代广场四楼", "avgprice": 73, "category": "湖北菜", "shopid": 93508109, "score1": "7.9", "score2": "8.6", "score3": "8.5", "lng": 114.053174, "lat": 22.520489}, {"name": "中发源清真餐厅(景田店)", "address": "景田路83号万托家园1楼", "avgprice": 103, "category": "其他中餐", "shopid": 1917673, "score1": "7.9", "score2": "7.9", "score3": "7.2", "lng": 114.043373, "lat": 22.552367}, {"name": "红灶头柴火鸡", "address": "蛇口街道海虹苑", "avgprice": 61, "category": "农家菜", "shopid": 58346773, "score1": "7.2", "score2": "6.9", "score3": "7.4", "lng": 113.924949, "lat": 22.487158}, {"name": "故乡柴火(西乡店)", "address": "西乡大道骏通大酒店1楼296号", "avgprice": 69, "category": "农家菜", "shopid": 67682108, "score1": "8.1", "score2": "8.1", "score3": "8.4", "lng": 113.860834, "lat": 22.570433}, {"name": "新固乡柴火鸡", "address": "大梅沙村101-3号", "avgprice": 57, "category": "农家菜", "shopid": 65615948, "score1": "7.9", "score2": "7.5", "score3": "8.1", "lng": 114.30555, "lat": 22.593246}, {"name": "幸福农家乐", "address": "西丽街道大磡二村杨门工业区42栋对面", "avgprice": 58, "category": "农家菜", "shopid": 23129697, "score1": "7.4", "score2": "6.4", "score3": "7.4", "lng": 113.984883, "lat": 22.619143}, {"name": "农家味道", "address": "龙岗大道大芬油画村", "avgprice": 0, "category": "农家菜", "shopid": 96045853, "score1": "8.1", "score2": "8.0", "score3": "7.9", "lng": 114.136183, "lat": 22.609631}, {"name": "蠔门饭店", "address": "沙井大街330号", "avgprice": 0, "category": "农家菜", "shopid": 75115857, "score1": "7.6", "score2": "7.5", "score3": "7.5", "lng": 113.8064548913781, "lat": 22.73951675687089}, {"name": "竹园农家院", "address": "深云路博达大厦一楼", "avgprice": 80, "category": "农家菜", "shopid": 69256003, "score1": "7.4", "score2": "7.0", "score3": "7.1", "lng": 113.988379, "lat": 22.551083}, {"name": "客家宴风味食府", "address": "上步中路1039号上步信托大楼北座1楼", "avgprice": 70, "category": "农家菜", "shopid": 5267372, "score1": "7.5", "score2": "7.3", "score3": "7.4", "lng": 114.095531, "lat": 22.547416}, {"name": "老乡村农家大碗菜(泰然店)", "address": "泰然四路73号", "avgprice": 42, "category": "农家菜", "shopid": 525451, "score1": "7.5", "score2": "6.8", "score3": "6.8", "lng": 114.028322, "lat": 22.533688}, {"name": "巴马寿乡人野鱼野菜馆(大学城店)", "address": "留仙大道平山一路25号群泰大厦二楼", "avgprice": 55, "category": "农家菜", "shopid": 80538853, "score1": "7.7", "score2": "7.5", "score3": "7.5", "lng": 113.96864, "lat": 22.58537}, {"name": "乐只村生态创意农庄(宝安壹方城店)", "address": "新湖路99号壹方城L5-009/009A", "avgprice": 0, "category": "农家菜", "shopid": 96303057, "score1": "7.6", "score2": "7.8", "score3": "7.3", "lng": 113.88420971406005, "lat": 22.55737966629251}, {"name": "巴马长寿乡野鱼野菜山珍馆", "address": "民治大道展滔科技大厦A栋二楼", "avgprice": 68, "category": "农家菜", "shopid": 96130360, "score1": "7.4", "score2": "7.9", "score3": "7.7", "lng": 114.038049, "lat": 22.639392}, {"name": "农家土灶", "address": "公明街道望胜路16号一、二楼", "avgprice": 32, "category": "农家菜", "shopid": 67445851, "score1": "7.5", "score2": "7.5", "score3": "7.5", "lng": 113.89757, "lat": 22.776694}, {"name": "农家柴火鸡", "address": "龙华新区民治街道龙塘西四巷6号", "avgprice": 48, "category": "农家菜", "shopid": 56941953, "score1": "7.5", "score2": "7.4", "score3": "7.2", "lng": 114.013876, "lat": 22.63054}, {"name": "紫金农庄", "address": "平山一路345-1号", "avgprice": 0, "category": "农家菜", "shopid": 92683426, "score1": "7.2", "score2": "6.9", "score3": "6.9", "lng": 113.965941, "lat": 22.585989}, {"name": "荷坳山庄", "address": "横岗街道荷坳社区荷坳路55号-8", "avgprice": 35, "category": "农家菜", "shopid": 57249947, "score1": "7.4", "score2": "7.3", "score3": "7.4", "lng": 114.224169, "lat": 22.678359}, {"name": "碧源农庄", "address": "南湾街道布澜路129-1号", "avgprice": 77, "category": "农家菜", "shopid": 56830780, "score1": "7.3", "score2": "7.4", "score3": "7.4", "lng": 114.12112010039249, "lat": 22.64523993060121}, {"name": "福顺农家菜", "address": "福永大道和怀德南路交叉口东南角", "avgprice": 48, "category": "农家菜", "shopid": 24055434, "score1": "7.3", "score2": "7.3", "score3": "7.2", "lng": 113.818994, "lat": 22.667635}, {"name": "随园农家菜", "address": "迳口社区大雄多肉对面", "avgprice": 65, "category": "农家菜", "shopid": 23039028, "score1": "7.9", "score2": "7.7", "score3": "7.7", "lng": 113.967251, "lat": 22.760959}, {"name": "向阳社农家炖菜馆", "address": "深圳上梅林梅华东路华安园115号", "avgprice": 47, "category": "农家菜", "shopid": 1923166, "score1": "7.3", "score2": "6.9", "score3": "6.9", "lng": 114.060301, "lat": 22.56516}, {"name": "福福囍囍创意中国菜(购物公园店)", "address": "购物公园北园A区一楼扶手梯旁八合里牛肉火锅楼下", "avgprice": 104, "category": "创意菜", "shopid": 90400876, "score1": "7.9", "score2": "8.6", "score3": "8.4", "lng": 114.054472, "lat": 22.536559}, {"name": "神秘的魔女厨房(福田店)", "address": "泰然九路皇冠科技园十亩地2F", "avgprice": 64, "category": "创意菜", "shopid": 94033238, "score1": "7.6", "score2": "8.4", "score3": "8.2", "lng": 114.023539, "lat": 22.533189}, {"name": "miniKor洣咪可创意韩料(购物公园cocopark店)", "address": "福田CBD中心二路cocoparkL1层", "avgprice": 101, "category": "创意菜", "shopid": 67909505, "score1": "8.3", "score2": "9.0", "score3": "8.5", "lng": 114.053943, "lat": 22.53377}, {"name": "很高兴遇见你(海岸城店)", "address": "文心五路33号海岸城购物中心5层", "avgprice": 97, "category": "创意菜", "shopid": 23127138, "score1": "7.1", "score2": "8.6", "score3": "7.9", "lng": 113.935206, "lat": 22.516833}, {"name": "花园里·融和菜(民治店)", "address": "民治大道468号海韵大厦二楼", "avgprice": 89, "category": "创意菜", "shopid": 32842703, "score1": "8.2", "score2": "9.1", "score3": "8.6", "lng": 114.037731, "lat": 22.627654}, {"name": "Deli&Leisure悠乐(皇庭广场店)", "address": "福华三路118号皇庭广场1层", "avgprice": 98, "category": "创意菜", "shopid": 21119485, "score1": "7.6", "score2": "8.8", "score3": "7.4", "lng": 114.059849, "lat": 22.532894}, {"name": "朝馆· 烤鸭创意北京菜", "address": "侨香东路1011号1979文化新天地B区2层", "avgprice": 251, "category": "创意菜", "shopid": 58412330, "score1": "8.1", "score2": "9.0", "score3": "8.7", "lng": 114.02999, "lat": 22.55251}, {"name": "木棉花开(君尚3019店)", "address": "中心路天虹总部大厦一楼", "avgprice": 156, "category": "创意菜", "shopid": 69291640, "score1": "7.5", "score2": "8.8", "score3": "8.5", "lng": 113.94097, "lat": 22.50702}, {"name": "米店(梅林店)", "address": "上梅林中康路奥士达大厦一层", "avgprice": 60, "category": "创意菜", "shopid": 32844593, "score1": "8.3", "score2": "8.1", "score3": "8.1", "lng": 114.05948, "lat": 22.563964}, {"name": "东方宴屋顶花园餐厅", "address": "东门中路2088号东门中心城3楼", "avgprice": 77, "category": "创意菜", "shopid": 23512301, "score1": "7.5", "score2": "8.1", "score3": "7.9", "lng": 114.123207, "lat": 22.549375}, {"name": "艺术.食堂", "address": "观澜街道启明街90号", "avgprice": 117, "category": "创意菜", "shopid": 58661192, "score1": "8.2", "score2": "8.8", "score3": "7.7", "lng": 114.08856, "lat": 22.730833}, {"name": "石板街(海雅缤纷城店)", "address": "建安一路99号海雅缤纷城购物中心1层", "avgprice": 88, "category": "创意菜", "shopid": 63313187, "score1": "7.7", "score2": "8.8", "score3": "7.7", "lng": 113.906523, "lat": 22.559115}, {"name": "青朴落博物酒馆", "address": "恩平路华侨城创意文化园F-1栋", "avgprice": 118, "category": "创意菜", "shopid": 2347735, "score1": "7.2", "score2": "8.4", "score3": "7.3", "lng": 113.99364, "lat": 22.537144}, {"name": "ATMONKEY 创艺猿", "address": "创意文化园北区A3栋107室", "avgprice": 84, "category": "创意菜", "shopid": 68960167, "score1": "7.6", "score2": "8.4", "score3": "8.0", "lng": 113.9928, "lat": 22.538878}, {"name": "MR.BF创意料理", "address": "海田路24号", "avgprice": 120, "category": "创意菜", "shopid": 69302455, "score1": "8.0", "score2": "8.3", "score3": "8.1", "lng": 114.065927, "lat": 22.531338}, {"name": "古稻林餐厅烤鸭精品店(西乡汇一城店)", "address": "西乡汇一城天虹负一楼B1022", "avgprice": 83, "category": "创意菜", "shopid": 19486211, "score1": "8.2", "score2": "8.6", "score3": "8.3", "lng": 113.863534, "lat": 22.575256}, {"name": "线所·自由配米线(卓悦汇店)", "address": "梅林街道中康路126号卓越城1期1栋06-09号商铺", "avgprice": 54, "category": "创意菜", "shopid": 90080143, "score1": "7.7", "score2": "8.7", "score3": "8.4", "lng": 114.059451, "lat": 22.571963}, {"name": "蟹匠1027(南山店)", "address": "南头街301号", "avgprice": 97, "category": "创意菜", "shopid": 79302769, "score1": "7.9", "score2": "7.8", "score3": "7.3", "lng": 113.9175, "lat": 22.536134}, {"name": "蔬予(华强北九方店)", "address": "华强北九方购物中心南区B1330号商铺", "avgprice": 46, "category": "创意菜", "shopid": 56509510, "score1": "7.5", "score2": "8.1", "score3": "7.8", "lng": 114.083447, "lat": 22.542465}, {"name": "桃李溪中式概念餐厅", "address": "科兴科学园原味街A栋G层35号商铺", "avgprice": 62, "category": "创意菜", "shopid": 90476502, "score1": "7.7", "score2": "7.9", "score3": "8.1", "lng": 113.943324, "lat": 22.548286}, {"name": "馔豚(万象天地店)", "address": "粤海街道深南大道9668号华润城万象天地B127", "avgprice": 64, "category": "台湾菜", "shopid": 90318000, "score1": "7.4", "score2": "7.6", "score3": "7.6", "lng": 113.95875, "lat": 22.54294}, {"name": "古早弄堂(欢乐海岸店)", "address": "白石路东8号欢乐海岸购物中心北区外2", "avgprice": 53, "category": "台湾菜", "shopid": 65830297, "score1": "7.3", "score2": "7.7", "score3": "7.6", "lng": 113.990626, "lat": 22.525635}, {"name": "牛唛面(万象天地店)", "address": "沙河西路华润万象天地B129", "avgprice": 45, "category": "台湾菜", "shopid": 93643604, "score1": "7.5", "score2": "8.0", "score3": "8.1", "lng": 113.955904, "lat": 22.541018}, {"name": "鹿港小镇(皇庭店)", "address": "皇庭国商购物广场L1层1、2号商铺", "avgprice": 98, "category": "台湾菜", "shopid": 93258680, "score1": "6.6", "score2": "7.7", "score3": "7.3", "lng": 114.06004, "lat": 22.53362}, {"name": "鑫益台湾胡椒虾(八卦岭店)", "address": "八卦一路5栋厂房一层24号", "avgprice": 114, "category": "台湾菜", "shopid": 66174716, "score1": "8.7", "score2": "7.7", "score3": "8.1", "lng": 114.10064, "lat": 22.5577}, {"name": "TeaWood茶木(中心城店)", "address": "福华一路新怡景商业中心L层FL1020号铺  ", "avgprice": 0, "category": "台湾菜", "shopid": 97053043, "score1": "7.5", "score2": "8.3", "score3": "7.1", "lng": 114.059785, "lat": 22.535492}, {"name": "一茶一坐台式融合料理(金光华广场店)", "address": "人民南路2028号金光华广场4层", "avgprice": 78, "category": "台湾菜", "shopid": 2030740, "score1": "7.0", "score2": "7.6", "score3": "7.1", "lng": 114.120129, "lat": 22.539573}, {"name": "一品活蝦-台式居酒屋", "address": "新洲九街99-27号", "avgprice": 137, "category": "台湾菜", "shopid": 91016458, "score1": "8.4", "score2": "7.5", "score3": "8.3", "lng": 114.047546, "lat": 22.52355}, {"name": "芒果爆爆(东海缤纷店)", "address": "深南大道7888号东海缤纷天地负一层B1068", "avgprice": 74, "category": "台湾菜", "shopid": 90010260, "score1": "7.8", "score2": "8.2", "score3": "7.9", "lng": 114.020142, "lat": 22.536325}, {"name": "豆府花城(欢乐海岸店)", "address": "白石路东57号欢乐海岸曲水湾B-23", "avgprice": 37, "category": "台湾菜", "shopid": 17231604, "score1": "7.1", "score2": "7.4", "score3": "6.7", "lng": 113.99078, "lat": 22.525106}, {"name": "台湾茶餐厅", "address": "甲岸村15栋", "avgprice": 32, "category": "台湾菜", "shopid": 92709417, "score1": "8.2", "score2": "7.7", "score3": "8.5", "lng": 113.904235, "lat": 22.560459}, {"name": "丽水阶.台湾休闲餐厅(丽水阶.台湾休闲餐厅)", "address": "沙河西路1809号", "avgprice": 67, "category": "台湾菜", "shopid": 22962229, "score1": "7.5", "score2": "8.1", "score3": "7.9", "lng": 113.952692, "lat": 22.530391}, {"name": "八方云集(壹方城店)", "address": "新安街道新湖路壹方城购物中心三楼大食代美食广场S1铺", "avgprice": 0, "category": "台湾菜", "shopid": 97128682, "score1": "7.3", "score2": "6.8", "score3": "7.3", "lng": 113.88685, "lat": 22.55314}, {"name": "鹊尔斯·台湾料理", "address": "华侨城恩平街创意园F4栋1楼", "avgprice": 93, "category": "台湾菜", "shopid": 4292431, "score1": "7.2", "score2": "7.6", "score3": "7.3", "lng": 113.993397, "lat": 22.536378}, {"name": "富呷一方创意火锅", "address": "笋岗街道桃园路8号HALO广场第2层L4-5-6号", "avgprice": 118, "category": "台湾菜", "shopid": 69255535, "score1": "7.5", "score2": "8.0", "score3": "7.7", "lng": 114.107154, "lat": 22.558334}, {"name": "古法冒菜.台湾美食", "address": "天虹总部大厦君尚店", "avgprice": 50, "category": "台湾菜", "shopid": 76309364, "score1": "6.9", "score2": "6.9", "score3": "6.9", "lng": 113.940902, "lat": 22.50649}, {"name": "卤味研究所", "address": "福华路连城新天地A区A23A", "avgprice": 36, "category": "台湾菜", "shopid": 68028683, "score1": "7.4", "score2": "7.2", "score3": "7.2", "lng": 114.058708, "lat": 22.534939}, {"name": "牪客小馆", "address": "沙井镇新桥洋下三路9号", "avgprice": 170, "category": "台湾菜", "shopid": 65593637, "score1": "7.6", "score2": "8.4", "score3": "8.5", "lng": 113.840743, "lat": 22.737052}, {"name": "大三元台湾鲁肉饭(沙井店)", "address": "沙井北环路93号", "avgprice": 25, "category": "台湾菜", "shopid": 22250301, "score1": "7.2", "score2": "7.2", "score3": "7.4", "lng": 113.840869, "lat": 22.734426}, {"name": "阿元狮台菜餐厅", "address": "新桥洋下一路2号（北环路口）", "avgprice": 58, "category": "台湾菜", "shopid": 2938735, "score1": "7.5", "score2": "6.9", "score3": "7.2", "lng": 113.843697, "lat": 22.734148}, {"name": "BROTHER KAFE(中心商务大厦店)", "address": "福田福华一路中心商务大厦一楼西侧113号", "avgprice": 61, "category": "咖啡厅", "shopid": 92968598, "score1": "8.3", "score2": "8.3", "score3": "8.6", "lng": 114.05247, "lat": 22.537114}, {"name": "StayReal Café(万象天地店)", "address": "深南大道9668号万象天地B178号", "avgprice": 70, "category": "咖啡厅", "shopid": 95080616, "score1": "8.2", "score2": "8.8", "score3": "8.6", "lng": 113.958604, "lat": 22.542972}, {"name": "NCafe花园餐厅(车公庙店)", "address": "泰然科技园泰然工贸园201栋1楼102号车公庙地铁站F出口右转20米", "avgprice": 71, "category": "咖啡厅", "shopid": 6133761, "score1": "7.3", "score2": "8.4", "score3": "7.7", "lng": 114.027724, "lat": 22.534969}, {"name": "杂咖(中心城店)", "address": "福华一路3号怡景中心城L层", "avgprice": 100, "category": "咖啡厅", "shopid": 38306598, "score1": "7.9", "score2": "8.7", "score3": "7.8", "lng": 114.060418, "lat": 22.53547}, {"name": "空Kong", "address": "石厦北二街新天世纪商务中心A座3801室", "avgprice": 53, "category": "咖啡厅", "shopid": 73596121, "score1": "7.9", "score2": "8.8", "score3": "8.3", "lng": 114.05348, "lat": 22.52163}, {"name": "猫小主猫咖啡＆cat cafe", "address": "美加广场E座14楼", "avgprice": 49, "category": "咖啡厅", "shopid": 93226271, "score1": "8.9", "score2": "9.1", "score3": "9.1", "lng": 113.977721, "lat": 22.537912}, {"name": "Something For(新华保险大厦店)", "address": "新华保险大厦西门民田路171-4", "avgprice": 36, "category": "咖啡厅", "shopid": 95942258, "score1": "9.0", "score2": "8.7", "score3": "9.1", "lng": 114.052205, "lat": 22.537931}, {"name": "Seesaw Coffee(华润万象天地店)", "address": "深南大道9668号万象天地NL138", "avgprice": 46, "category": "咖啡厅", "shopid": 93291422, "score1": "7.8", "score2": "8.7", "score3": "8.1", "lng": 113.95586, "lat": 22.5416}, {"name": "BARISTA PRO CAFE(太平金融大厦店)", "address": "福中三路太平金融大厦下沉广场02", "avgprice": 103, "category": "咖啡厅", "shopid": 57513538, "score1": "7.5", "score2": "8.1", "score3": "7.9", "lng": 114.0556, "lat": 22.542042}, {"name": "Home cafe", "address": "民兴街莱蒙水榭春天花园5期06号", "avgprice": 53, "category": "咖啡厅", "shopid": 79614490, "score1": "9.1", "score2": "9.1", "score3": "9.3", "lng": 114.027205, "lat": 22.624287}, {"name": "La Moda", "address": "深圳南山区万象天地NL167", "avgprice": 146, "category": "咖啡厅", "shopid": 95994249, "score1": "7.1", "score2": "8.3", "score3": "7.4", "lng": 113.955897, "lat": 22.540744}, {"name": "Life&Kitchen 美式餐厅｜蛇口六號花園店(蛇口6号花园店)", "address": "蛇口太子南路碧涛苑碧桦路6栋", "avgprice": 87, "category": "咖啡厅", "shopid": 19564688, "score1": "8.2", "score2": "8.9", "score3": "8.3", "lng": 113.913401, "lat": 22.479695}, {"name": "漫咖啡(1979店)", "address": "侨香东路1011号1979文化新天地B区1层", "avgprice": 59, "category": "咖啡厅", "shopid": 23230998, "score1": "7.8", "score2": "8.9", "score3": "8.0", "lng": 114.031403, "lat": 22.551797}, {"name": "AROMA COFFEE(卓越INTOWN店)", "address": "福田街道福华三路卓越INTOWN购物中心一楼1L-V", "avgprice": 35, "category": "咖啡厅", "shopid": 93775730, "score1": "8.2", "score2": "8.5", "score3": "8.3", "lng": 114.06526986843107, "lat": 22.53228288557852}, {"name": "Akimbo Cafe", "address": "港湾大道18号6栋SO艺术空间2楼", "avgprice": 62, "category": "咖啡厅", "shopid": 81264320, "score1": "7.8", "score2": "9.0", "score3": "8.1", "lng": 113.90862, "lat": 22.476975}, {"name": "PINKY SIX", "address": "信宜四路", "avgprice": 76, "category": "咖啡厅", "shopid": 94008872, "score1": "7.9", "score2": "9.0", "score3": "8.8", "lng": 113.987032, "lat": 22.586509}, {"name": "nobu nobu咖啡厅", "address": "粤海街道海德一道观海台商铺北2门旁", "avgprice": 43, "category": "咖啡厅", "shopid": 96692669, "score1": "8.2", "score2": "8.9", "score3": "8.8", "lng": 113.938136, "lat": 22.515037}, {"name": "LazyPlanet懒人星球", "address": "福田中心区海田路卓越世纪中心3号楼B座3317", "avgprice": 52, "category": "咖啡厅", "shopid": 96557680, "score1": "8.6", "score2": "8.9", "score3": "8.8", "lng": 114.065307, "lat": 22.531201}, {"name": "邻间(阿里巴巴大厦店)", "address": "科苑南路阿里巴巴大厦T4座1楼27单元", "avgprice": 52, "category": "咖啡厅", "shopid": 91645435, "score1": "8.5", "score2": "9.1", "score3": "9.1", "lng": 113.94304, "lat": 22.50906}, {"name": "BLEND 咖啡部落(车公庙店)", "address": "车公庙213栋西侧一楼店铺", "avgprice": 62, "category": "咖啡厅", "shopid": 69688799, "score1": "8.3", "score2": "8.6", "score3": "8.9", "lng": 114.025145, "lat": 22.531911}, {"name": "紫苑·雅生活馆(欢乐海岸店)", "address": "白石路东41号欢乐海岸曲水湾A-10", "avgprice": 324, "category": "家常菜", "shopid": 32541845, "score1": "7.7", "score2": "8.9", "score3": "8.1", "lng": 113.991557, "lat": 22.524893}, {"name": "潮盛白粥", "address": "常兴路31号", "avgprice": 31, "category": "家常菜", "shopid": 21204670, "score1": "7.4", "score2": "6.7", "score3": "6.9", "lng": 113.920874, "lat": 22.527501}, {"name": "让鸭脑壳飞(西丽店)", "address": "西丽镇官龙村第一工业区大门口", "avgprice": 49, "category": "家常菜", "shopid": 92365367, "score1": "6.7", "score2": "6.8", "score3": "7.0", "lng": 113.947783, "lat": 22.585914}, {"name": "村里村外(梅林店)", "address": "梅林路尚书苑一楼国美电器楼下", "avgprice": 49, "category": "家常菜", "shopid": 13763849, "score1": "7.1", "score2": "7.2", "score3": "7.2", "lng": 114.037768, "lat": 22.563589}, {"name": "客乡情紫金家常菜", "address": "龙江1巷62号", "avgprice": 30, "category": "家常菜", "shopid": 48551740, "score1": "6.9", "score2": "6.8", "score3": "6.9", "lng": 113.910343, "lat": 22.561753}, {"name": "集悦美食城", "address": "塘兴路221号", "avgprice": 0, "category": "家常菜", "shopid": 96412318, "score1": "6.9", "score2": "6.6", "score3": "6.6", "lng": 113.984447, "lat": 22.587445}, {"name": "吉祥山庄餐厅", "address": "坂田吉华路大丹工业区505号", "avgprice": 66, "category": "家常菜", "shopid": 59254818, "score1": "7.6", "score2": "7.6", "score3": "7.5", "lng": 114.074403, "lat": 22.640831}, {"name": "芙蓉寨", "address": "吉华路下水径大排工业区5栋", "avgprice": 0, "category": "家常菜", "shopid": 95079992, "score1": "7.3", "score2": "7.3", "score3": "7.2", "lng": 114.112156, "lat": 22.615073}, {"name": "肥妈家常菜", "address": "布尾村139号", "avgprice": 20, "category": "家常菜", "shopid": 48162800, "score1": "7.0", "score2": "7.0", "score3": "7.0", "lng": 114.04233, "lat": 22.558003}, {"name": "陆味坊家常菜", "address": "宝深路科陆大厦5楼", "avgprice": 60, "category": "家常菜", "shopid": 67262712, "score1": "7.2", "score2": "7.3", "score3": "7.0", "lng": 113.941244, "lat": 22.56123692244633}, {"name": "语典休闲餐厅", "address": "莲塘路聚福花园A区，大门西行20米", "avgprice": 35, "category": "家常菜", "shopid": 21556370, "score1": "7.1", "score2": "7.0", "score3": "7.2", "lng": 114.17095, "lat": 22.56135}, {"name": "炒作", "address": "景田综合市场A33a", "avgprice": 0, "category": "家常菜", "shopid": 76847782, "score1": "7.2", "score2": "7.2", "score3": "7.2", "lng": 114.045455, "lat": 22.549762}, {"name": "老表家常菜", "address": "横岗街道六约社区牛始埔得宜一街65号", "avgprice": 25, "category": "家常菜", "shopid": 58950318, "score1": "7.2", "score2": "6.8", "score3": "7.2", "lng": 114.18637, "lat": 22.635831}, {"name": "愉悦川菜", "address": "中怡路57号", "avgprice": 0, "category": "家常菜", "shopid": 80093884, "score1": "6.9", "score2": "7.5", "score3": "7.3", "lng": 114.13836, "lat": 22.61286}, {"name": "安迪西餐厅", "address": "龙峰一路550号", "avgprice": 84, "category": "家常菜", "shopid": 6293556, "score1": "7.3", "score2": "6.3", "score3": "6.3", "lng": 114.01763, "lat": 22.65206}, {"name": "广福楼特色家常菜", "address": "沙头角和田街6号", "avgprice": 64, "category": "家常菜", "shopid": 24896412, "score1": "7.2", "score2": "7.1", "score3": "6.9", "lng": 114.227344, "lat": 22.552137}, {"name": "柯记餐厅(大望店)", "address": "大望村大望大道大望综合楼一楼", "avgprice": 0, "category": "家常菜", "shopid": 10334885, "score1": "7.6", "score2": "7.3", "score3": "7.3", "lng": 114.171573, "lat": 22.602982}, {"name": "乐研海鲜餐厅", "address": "杨梅坑村288号", "avgprice": 35, "category": "家常菜", "shopid": 43713530, "score1": "6.4", "score2": "6.8", "score3": "7.0", "lng": 114.57332, "lat": 22.544329}, {"name": "陆河强记家常菜馆", "address": "新洲六街祠堂村105号", "avgprice": 50, "category": "家常菜", "shopid": 4587299, "score1": "6.5", "score2": "6.4", "score3": "6.7", "lng": 114.044836, "lat": 22.521615}, {"name": "江江有味湖北家常菜馆", "address": "桃源街到龙井庭苑3号商铺", "avgprice": 0, "category": "家常菜", "shopid": 79678510, "score1": "7.1", "score2": "7.0", "score3": "7.0", "lng": 113.97604, "lat": 22.55922}, {"name": "桃园眷村(深圳万象天地店)", "address": "深南大道9668号万象天地NL160", "avgprice": 35, "category": "快餐简餐", "shopid": 90546277, "score1": "6.9", "score2": "7.4", "score3": "7.0", "lng": 113.956105, "lat": 22.541902}, {"name": "点都德(kk one店)", "address": "滨河大道滨河时代KKONE购物中心负一楼南区B126d-B126e", "avgprice": 85, "category": "小吃快餐", "shopid": 96169094, "score1": "8.0", "score2": "8.2", "score3": "7.4", "lng": 114.02625, "lat": 22.52838}, {"name": "冰村食坊煲仔粥(梅林居店)", "address": "梅林街道中康路天源梅林居黄祠巷22号", "avgprice": 33, "category": "快餐简餐", "shopid": 58443184, "score1": "8.7", "score2": "7.4", "score3": "8.0", "lng": 114.05836, "lat": 22.56602}, {"name": "鼎泰丰(华润万象城店)", "address": "宝安南路1881号华润万象城一期3层", "avgprice": 142, "category": "包子", "shopid": 12600083, "score1": "7.9", "score2": "8.3", "score3": "8.4", "lng": 114.111, "lat": 22.54}, {"name": "黑白电视老长沙吃货铺(皇庭广场店)", "address": "福华三路皇庭购物广场负一楼H-7", "avgprice": 37, "category": "小吃快餐", "shopid": 93230685, "score1": "7.2", "score2": "7.1", "score3": "6.8", "lng": 114.0598512451628, "lat": 22.53376345198811}, {"name": "来到普宁肠粉", "address": "东门街道湖贝路1081号金色罗湖宾馆对面", "avgprice": 25, "category": "小吃快餐", "shopid": 67280833, "score1": "7.8", "score2": "7.6", "score3": "8.3", "lng": 114.12846, "lat": 22.545483}, {"name": "成都钟姐钵钵鸡", "address": "南光商业街10号", "avgprice": 41, "category": "快餐简餐", "shopid": 76409903, "score1": "9.0", "score2": "7.1", "score3": "7.9", "lng": 113.925819, "lat": 22.518182}, {"name": "和府捞面(卓悦intown店)", "address": "卓悦INTOWN负一层B107号", "avgprice": 49, "category": "小吃快餐", "shopid": 93227351, "score1": "7.7", "score2": "8.5", "score3": "8.1", "lng": 114.064937, "lat": 22.531604}, {"name": "517猪扒包(壹方城店)", "address": "新湖路99号壹方城B2层071A号铺", "avgprice": 28, "category": "小吃快餐", "shopid": 67964108, "score1": "8.0", "score2": "7.5", "score3": "7.8", "lng": 113.887729, "lat": 22.553081}, {"name": "香港阿一豬扒酸辣米綫", "address": "海德二道近文心六路海岸城東座地面159號鋪", "avgprice": 39, "category": "快餐简餐", "shopid": 19093493, "score1": "8.0", "score2": "7.3", "score3": "7.4", "lng": 113.93826, "lat": 22.517614}, {"name": "汕头辉记肠粉王", "address": "金田路皇岗村上围村26栋", "avgprice": 23, "category": "快餐简餐", "shopid": 5239093, "score1": "7.7", "score2": "6.3", "score3": "7.0", "lng": 114.0632398, "lat": 22.52616305}, {"name": "一只小红薯(皇庭广场店)", "address": "福华三路118号皇庭广场B1层摩卡湾H-5号商铺", "avgprice": 22, "category": "小吃快餐", "shopid": 97193631, "score1": "7.5", "score2": "7.6", "score3": "7.8", "lng": 114.05982706328804, "lat": 22.533687019131452}, {"name": "庙东排骨(华强店)", "address": "振华路高科德电子市场159-12", "avgprice": 25, "category": "小吃快餐", "shopid": 95661203, "score1": "7.7", "score2": "7.3", "score3": "7.5", "lng": 114.08481, "lat": 22.544225}, {"name": "金稻园砂锅粥(福中店)", "address": "福中路48号", "avgprice": 92, "category": "小吃快餐", "shopid": 2047114, "score1": "7.8", "score2": "7.3", "score3": "7.0", "lng": 114.070391, "lat": 22.545068}, {"name": "潮汕甜汤豆浆油条", "address": "新洲一街新大洲酒店右边巷子", "avgprice": 13, "category": "小吃快餐", "shopid": 80539324, "score1": "7.8", "score2": "6.5", "score3": "7.2", "lng": 114.04715, "lat": 22.52673}, {"name": "小鼓米线", "address": "沙河西路茶光村茶光综合楼", "avgprice": 0, "category": "小吃快餐", "shopid": 96210696, "score1": "7.4", "score2": "7.4", "score3": "7.4", "lng": 113.952981, "lat": 22.566174}, {"name": "滚弹 潮汕轻食(海岸城)", "address": "海岸城东座1楼171B", "avgprice": 0, "category": "小吃快餐", "shopid": 95463106, "score1": "7.7", "score2": "7.6", "score3": "8.2", "lng": 113.937643, "lat": 22.517753}, {"name": "阿叔牛腩档", "address": "园岭六街9号", "avgprice": 33, "category": "小吃快餐", "shopid": 2551885, "score1": "7.4", "score2": "6.6", "score3": "7.3", "lng": 114.0979, "lat": 22.55412}, {"name": "喜面堂(kk mall店)", "address": "深南东路5016号蔡屋围一街京基100kkmall1楼", "avgprice": 36, "category": "小吃快餐", "shopid": 69453610, "score1": "7.3", "score2": "7.3", "score3": "7.3", "lng": 114.106568, "lat": 22.5443}, {"name": "椒麻巷重庆小面", "address": "蛇口海昌街22号蓝虹豪苑6号铺", "avgprice": 28, "category": "小吃快餐", "shopid": 91064561, "score1": "8.4", "score2": "8.2", "score3": "8.5", "lng": 113.923265, "lat": 22.486855}, {"name": "文和友老长沙龙虾馆(罗湖店)", "address": "春风路云景豪园首层", "avgprice": 141, "category": "小龙虾", "shopid": 66342202, "score1": "8.6", "score2": "7.9", "score3": "7.9", "lng": 114.126861, "lat": 22.539913}, {"name": "江味龙虾馆(南山店)", "address": "南山大道与桂庙路交汇处44号", "avgprice": 114, "category": "小龙虾", "shopid": 57880853, "score1": "9.0", "score2": "9.0", "score3": "9.1", "lng": 113.922903, "lat": 22.524732}, {"name": "汉虾王(科技园店)", "address": "高新园科技路11号伟杰置业一楼", "avgprice": 136, "category": "小龙虾", "shopid": 65491742, "score1": "8.8", "score2": "8.8", "score3": "8.8", "lng": 113.949396, "lat": 22.54238}, {"name": "犇犇牛火锅(景田店)", "address": "景田东路怡枫园C栋107号", "avgprice": 98, "category": "小龙虾", "shopid": 66446590, "score1": "7.9", "score2": "7.9", "score3": "8.0", "lng": 114.045408, "lat": 22.553213}, {"name": "走走虾私房菜", "address": "安托山七路3号HiRunning商业体G层02号", "avgprice": 114, "category": "小龙虾", "shopid": 46006952, "score1": "9.0", "score2": "9.0", "score3": "9.0", "lng": 114.012693, "lat": 22.55093}, {"name": "松哥油焖大虾(海岸城店)", "address": "文心六路保利文化广场A1-33铺", "avgprice": 136, "category": "小龙虾", "shopid": 32757717, "score1": "8.5", "score2": "7.8", "score3": "8.4", "lng": 113.937493, "lat": 22.516349}, {"name": "无虾不欢", "address": "保利文化广场A区3层A3-03-02", "avgprice": 92, "category": "小龙虾", "shopid": 93001625, "score1": "9.1", "score2": "9.2", "score3": "9.2", "lng": 113.939055, "lat": 22.517179}, {"name": "呆呆虾(梅林店)", "address": "梅华路与中康路交汇处", "avgprice": 114, "category": "小龙虾", "shopid": 57255426, "score1": "8.3", "score2": "8.1", "score3": "8.3", "lng": 114.0595, "lat": 22.56422}, {"name": "煌飛红酒馆·小龙虾·大闸蟹", "address": "八卦一路2-1号", "avgprice": 90, "category": "小龙虾", "shopid": 92947486, "score1": "7.7", "score2": "7.9", "score3": "7.7", "lng": 114.103759, "lat": 22.557394}, {"name": "虾胡闹", "address": "蛇口街道中心路卓越维港北区4-7-102商铺", "avgprice": 173, "category": "小龙虾", "shopid": 48024900, "score1": "9.0", "score2": "9.1", "score3": "9.2", "lng": 113.94078, "lat": 22.497067}, {"name": "龙巢盱眙龙虾(香蜜湖店)", "address": "香蜜湖美食城A10号", "avgprice": 124, "category": "小龙虾", "shopid": 3049726, "score1": "8.2", "score2": "7.9", "score3": "7.7", "lng": 114.034328, "lat": 22.542734}, {"name": "辣海兽·川味辣卤海鲜餐厅", "address": "振兴路99-6号", "avgprice": 99, "category": "小龙虾", "shopid": 66724162, "score1": "8.7", "score2": "8.6", "score3": "8.7", "lng": 114.082959, "lat": 22.546276}, {"name": "秘卤道秘制小龙虾", "address": "科发路1号富利臻大厦13-15号", "avgprice": 175, "category": "小龙虾", "shopid": 69682171, "score1": "8.5", "score2": "8.3", "score3": "8.6", "lng": 113.949056, "lat": 22.543018}, {"name": "探虾(香蜜湖店)", "address": "深南大道6068号香蜜湖度假村内", "avgprice": 170, "category": "小龙虾", "shopid": 65543542, "score1": "8.5", "score2": "8.5", "score3": "8.0", "lng": 114.03458, "lat": 22.540305}, {"name": "玖钱虾(龙岗荣超英隆店)", "address": "龙岗中心城龙福路", "avgprice": 92, "category": "小龙虾", "shopid": 94002188, "score1": "8.2", "score2": "8.4", "score3": "8.2", "lng": 114.250459, "lat": 22.724623}, {"name": "狼魅WolfCharming(梅林卓越店)", "address": "八一路海曙凯丰酒店一楼三号", "avgprice": 94, "category": "小龙虾", "shopid": 67321604, "score1": "7.2", "score2": "7.5", "score3": "7.4", "lng": 114.061567, "lat": 22.571884}, {"name": "帅帅虾王·湖北菜", "address": "梅龙公路153号鑫海公寓一层商铺", "avgprice": 113, "category": "小龙虾", "shopid": 24707183, "score1": "8.8", "score2": "7.6", "score3": "7.9", "lng": 114.043938, "lat": 22.603144}, {"name": "虾皇", "address": "沙嘴路金地工业区配餐中心二层L2", "avgprice": 141, "category": "小龙虾", "shopid": 90414000, "score1": "7.4", "score2": "7.7", "score3": "7.3", "lng": 114.03708, "lat": 22.52147}, {"name": "鲜虾王", "address": "西丽366大街八方精品酒店后面一楼", "avgprice": 94, "category": "小龙虾", "shopid": 58495950, "score1": "8.5", "score2": "8.4", "score3": "8.4", "lng": 113.949061, "lat": 22.584443}, {"name": "宾赞小龙虾(桃园店)", "address": "桃园路田厦金牛广场A座负二楼C—11号", "avgprice": 138, "category": "小龙虾", "shopid": 70433836, "score1": "8.1", "score2": "7.6", "score3": "7.7", "lng": 113.926745, "lat": 22.532848}, {"name": "禄鼎记(平安中心店)", "address": "平安金融中心6楼N608商铺", "avgprice": 102, "category": "川菜", "shopid": 92763376, "score1": "8.1", "score2": "8.3", "score3": "8.3", "lng": 114.055586, "lat": 22.533215}, {"name": "太二酸菜鱼(皇庭广场店)", "address": "皇庭国商购物广场L1层16-17号", "avgprice": 90, "category": "川菜", "shopid": 92329372, "score1": "8.2", "score2": "8.5", "score3": "8.2", "lng": 114.059823, "lat": 22.533575}, {"name": "胡桃里音乐酒馆(中心城店)", "address": "福华一路3号怡景中心城L层RL1090A商铺", "avgprice": 124, "category": "川菜/家常菜", "shopid": 38306645, "score1": "7.8", "score2": "8.7", "score3": "7.6", "lng": 114.059432, "lat": 22.536629}, {"name": "蟹密", "address": "中航路35号", "avgprice": 85, "category": "川菜/家常菜", "shopid": 93234619, "score1": "8.4", "score2": "8.7", "score3": "8.4", "lng": 114.083527, "lat": 22.546055}, {"name": "渔语鱼•酸菜鱼专门店(皇庭广场店)", "address": "福华三路118号皇庭广场1层", "avgprice": 87, "category": "川菜/家常菜", "shopid": 18993264, "score1": "8.1", "score2": "8.5", "score3": "8.3", "lng": 114.059823, "lat": 22.533003}, {"name": "在榕树下(万象天地店)", "address": "深南大道9668号万象天地SL186", "avgprice": 132, "category": "川菜/家常菜", "shopid": 94025610, "score1": "6.0", "score2": "7.3", "score3": "6.1", "lng": 113.954445, "lat": 22.54116}, {"name": "撒椒(南山万象天地店)", "address": "深南大道华润万象天地1层NL157号商铺", "avgprice": 86, "category": "川菜", "shopid": 93288539, "score1": "7.7", "score2": "8.3", "score3": "8.0", "lng": 113.956424, "lat": 22.542228}, {"name": "张氏宽窄巷成都名小吃(壹方城店)", "address": "新安街道新湖路99号壹方城B2层026号商铺", "avgprice": 54, "category": "川菜/家常菜", "shopid": 95891200, "score1": "6.6", "score2": "7.1", "score3": "6.4", "lng": 113.887213, "lat": 22.553368}, {"name": "澳云巴巴音乐餐厅(壹方城店)", "address": "新安街道新湖路99号壹方城L1层100-101号", "avgprice": 114, "category": "川菜/家常菜", "shopid": 96229363, "score1": "7.6", "score2": "8.5", "score3": "7.7", "lng": 113.886468, "lat": 22.552921}, {"name": "姚姚爱鱼 | 姚酸菜鱼(中心城店)", "address": "福华一路3号中心广场L层FL1023", "avgprice": 82, "category": "川菜", "shopid": 67316609, "score1": "7.9", "score2": "8.2", "score3": "7.6", "lng": 114.059821, "lat": 22.53581}, {"name": "巴蜀风(万象天地店)", "address": "华润万象天地负一层B135号", "avgprice": 83, "category": "川菜/家常菜", "shopid": 93777093, "score1": "7.7", "score2": "8.3", "score3": "7.8", "lng": 113.956837, "lat": 22.540963}, {"name": "兔槽江湖菜", "address": "水围村七街龙轩豪庭一层7号铺", "avgprice": 79, "category": "川菜", "shopid": 92736290, "score1": "8.8", "score2": "8.8", "score3": "8.9", "lng": 114.062337, "lat": 22.520199}, {"name": "蓉悦餐厅(益田假日广场店)", "address": "深南大道9028号华侨城威尼斯酒店旁益田假日广场3层", "avgprice": 117, "category": "川菜/家常菜", "shopid": 32420451, "score1": "8.1", "score2": "8.8", "score3": "8.1", "lng": 113.97603, "lat": 22.53729}, {"name": "派对2.0(海岸城店)", "address": "文心五路33号海岸城购物中心西区1层美食街150号", "avgprice": 89, "category": "香锅", "shopid": 43557776, "score1": "8.1", "score2": "8.5", "score3": "8.8", "lng": 113.935979, "lat": 22.516755}, {"name": "姚酸菜鱼(coco park店)", "address": "福华三路星河cocopark商场三楼L3C-002a号商铺", "avgprice": 85, "category": "川菜", "shopid": 90332811, "score1": "7.8", "score2": "8.1", "score3": "7.8", "lng": 114.05396, "lat": 22.53311}, {"name": "炭舍·炭火干锅(福田COCO Park店)", "address": "福华三路星河COCOPark商场三楼L3C-017a", "avgprice": 90, "category": "香锅", "shopid": 68155645, "score1": "8.4", "score2": "8.7", "score3": "9.0", "lng": 114.053801, "lat": 22.532949}, {"name": "炉鱼(海岸城店)", "address": "文心五路33号海岸城购物中心5层", "avgprice": 70, "category": "烤鱼", "shopid": 23675650, "score1": "8.3", "score2": "8.4", "score3": "8.4", "lng": 113.934696, "lat": 22.516976}, {"name": "六叔柠檬鱼(壹方中心店)", "address": "创业一路壹方城4楼", "avgprice": 101, "category": "川菜/家常菜", "shopid": 96289717, "score1": "7.1", "score2": "8.1", "score3": "7.5", "lng": 113.887222, "lat": 22.553179}, {"name": "TT姜湖鱼·十二道川味", "address": "科技园文化广场西侧2楼", "avgprice": 72, "category": "烤鱼", "shopid": 96470769, "score1": "7.8", "score2": "8.8", "score3": "8.1", "lng": 113.942278, "lat": 22.540584}, {"name": "老房子(水岸元年食府欢乐海岸店)", "address": "白石路东14号欢乐海岸曲水湾A-1G", "avgprice": 135, "category": "川菜/家常菜", "shopid": 5363166, "score1": "7.8", "score2": "8.7", "score3": "8.0", "lng": 113.992745, "lat": 22.523881}, {"name": "1001餐厅", "address": "欢乐海岸曲水湾4号负一楼", "avgprice": 104, "category": "新疆菜", "shopid": 69037306, "score1": "8.5", "score2": "8.9", "score3": "8.3", "lng": 113.991809, "lat": 22.52307}, {"name": "楼兰新疆主题餐厅(宝安壹方城店)", "address": "新湖路99号壹方城5楼", "avgprice": 81, "category": "新疆菜", "shopid": 95261076, "score1": "7.3", "score2": "7.5", "score3": "7.6", "lng": 113.888471, "lat": 22.55189}, {"name": "新疆红柳花餐厅", "address": "新州北村55-1号", "avgprice": 99, "category": "新疆菜", "shopid": 22701768, "score1": "8.6", "score2": "8.2", "score3": "8.6", "lng": 114.045935, "lat": 22.527442}, {"name": "新粤塔里木河清真餐厅", "address": "东园路滨河新村53号", "avgprice": 105, "category": "新疆菜", "shopid": 522528, "score1": "8.3", "score2": "8.4", "score3": "7.6", "lng": 114.098349, "lat": 22.53779}, {"name": "莲香西域", "address": "西丽大学城平山一路大园工业园11栋B-6号", "avgprice": 67, "category": "新疆菜", "shopid": 67621324, "score1": "9.0", "score2": "7.7", "score3": "7.9", "lng": 113.969919, "lat": 22.584433}, {"name": "哈密新疆融合菜(COCO City店)", "address": "梅龙路星河cococity二楼", "avgprice": 71, "category": "新疆菜", "shopid": 92294415, "score1": "7.9", "score2": "8.6", "score3": "7.9", "lng": 114.046318, "lat": 22.602529}, {"name": "大拌新疆餐厅(海岸城店)", "address": "粤海街道文心六路", "avgprice": 97, "category": "新疆菜", "shopid": 72340982, "score1": "8.3", "score2": "8.3", "score3": "8.3", "lng": 113.938674, "lat": 22.518239}, {"name": "火爆鸡新疆餐厅", "address": "泰然九路皇冠科技园十亩地2楼", "avgprice": 62, "category": "新疆菜", "shopid": 93698302, "score1": "7.9", "score2": "8.0", "score3": "8.7", "lng": 114.024137, "lat": 22.533293}, {"name": "巴依的小羊歌舞餐厅(九方购物中心店)", "address": "中航路1号九方购物中心4层", "avgprice": 88, "category": "新疆菜", "shopid": 57091513, "score1": "7.1", "score2": "8.0", "score3": "7.4", "lng": 114.082536, "lat": 22.543024}, {"name": "驼铃印象新疆主题餐厅(梅林卓悦汇店)", "address": "上梅林中康路卓悦汇购物中心5楼31号商铺", "avgprice": 67, "category": "新疆菜", "shopid": 68065748, "score1": "7.3", "score2": "7.6", "score3": "7.4", "lng": 114.06019, "lat": 22.569531}, {"name": "耶丽米娅餐厅(湖贝店)", "address": "湖贝路1049号", "avgprice": 65, "category": "新疆菜", "shopid": 67824742, "score1": "7.7", "score2": "8.3", "score3": "7.7", "lng": 114.129386, "lat": 22.545956}, {"name": "北疆饭店(东海缤纷天地店)", "address": "香林路东海缤纷天地负一楼", "avgprice": 78, "category": "新疆菜", "shopid": 19165207, "score1": "7.5", "score2": "8.0", "score3": "7.6", "lng": 114.020533, "lat": 22.536502}, {"name": "丝路胡杨林新疆风味餐厅(海上世界店)", "address": "招商街道蛇口太子路33号振兴大厦D座101", "avgprice": 96, "category": "新疆菜", "shopid": 92399860, "score1": "8.0", "score2": "8.6", "score3": "8.3", "lng": 113.91513582724532, "lat": 22.48627351717618}, {"name": "伊地古德清真餐厅", "address": "深南大道香蜜湖度假村百家汇美食城A12号", "avgprice": 125, "category": "新疆菜", "shopid": 2811028, "score1": "8.0", "score2": "7.4", "score3": "7.3", "lng": 114.034101, "lat": 22.543176}, {"name": "十五年亚克西餐厅", "address": "春风路1005号锦星花园3座102室", "avgprice": 76, "category": "新疆菜", "shopid": 43608597, "score1": "8.3", "score2": "6.8", "score3": "7.3", "lng": 114.132906, "lat": 22.542506}, {"name": "新疆驻深圳办事处餐厅", "address": "春风路1005号联城联合大厦", "avgprice": 58, "category": "新疆菜", "shopid": 57276952, "score1": "7.9", "score2": "5.8", "score3": "6.6", "lng": 114.131794, "lat": 22.542252}, {"name": "巴依老爷新疆食府", "address": "南山大道中兴之家101号", "avgprice": 78, "category": "新疆菜", "shopid": 524262, "score1": "7.2", "score2": "6.4", "score3": "6.7", "lng": 113.92368, "lat": 22.526416}, {"name": "雪莲美食", "address": "春风路东1034号", "avgprice": 80, "category": "新疆菜", "shopid": 525459, "score1": "7.6", "score2": "6.7", "score3": "6.8", "lng": 114.133195, "lat": 22.542975}, {"name": "西域五月花儿NO.1号店(福田店)", "address": "沙嘴路椰树花园35号商铺五月花儿美食34+35号铺", "avgprice": 74, "category": "新疆菜", "shopid": 32642906, "score1": "8.0", "score2": "7.3", "score3": "7.5", "lng": 114.038071, "lat": 22.52479}, {"name": "穆斯林宾馆清真餐厅", "address": "文锦南路2013号穆斯林宾馆2楼", "avgprice": 90, "category": "新疆菜", "shopid": 523684, "score1": "7.2", "score2": "7.2", "score3": "7.2", "lng": 114.130569, "lat": 22.54335}, {"name": "橘焱胡同烧肉夜食(万象城店)", "address": "宝安南路1881号华润万象城二期2层S266", "avgprice": 311, "category": "日本料理", "shopid": 93662679, "score1": "9.2", "score2": "9.3", "score3": "9.3", "lng": 114.11138972325735, "lat": 22.539780580401214}, {"name": "小草日式料理·听说很好吃日料", "address": "红宝路57-1号", "avgprice": 91, "category": "日本料理", "shopid": 96126293, "score1": "8.8", "score2": "8.5", "score3": "8.8", "lng": 114.108295, "lat": 22.546354}, {"name": "老乾杯(平安金融中心店)", "address": "益田路5033号平安金融中心商场PAFCMALL9楼", "avgprice": 697, "category": "日本料理", "shopid": 93772945, "score1": "9.0", "score2": "9.0", "score3": "9.2", "lng": 114.055528, "lat": 22.533381}, {"name": "植藤·匠日本料理(中洲万豪店)", "address": "海德一道88号中洲控股中心A座中洲万豪酒店44F", "avgprice": 1152, "category": "日本料理", "shopid": 57596727, "score1": "9.1", "score2": "9.3", "score3": "9.1", "lng": 113.933797, "lat": 22.517314}, {"name": "江叶食堂·居酒屋", "address": "深南大道都市阳光名苑1座17楼A", "avgprice": 113, "category": "日本料理", "shopid": 93648855, "score1": "8.6", "score2": "9.0", "score3": "8.9", "lng": 114.025285, "lat": 22.534986}, {"name": "堂本家洋食别馆(中心城店)", "address": "福华一路3号怡景中心城广场L楼FL1011号", "avgprice": 86, "category": "日本料理", "shopid": 6136909, "score1": "8.3", "score2": "8.8", "score3": "8.6", "lng": 114.059197, "lat": 22.534929}, {"name": "花舞印象.Art by teamLab", "address": "香山东街华侨城文化创意园北区B1栋101", "avgprice": 2408, "category": "日本料理", "shopid": 95991286, "score1": "8.0", "score2": "8.6", "score3": "7.9", "lng": 113.99356, "lat": 22.53866}, {"name": "食冶日本料理铁板烧(宝安壹方城店)", "address": "新湖路99号壹方城L5层003A", "avgprice": 319, "category": "日本料理", "shopid": 93997438, "score1": "8.7", "score2": "9.0", "score3": "8.8", "lng": 113.88731, "lat": 22.55371}, {"name": "大阪烧肉双子(国贸店)", "address": "南湖路3009号国贸商厦2A2H", "avgprice": 246, "category": "日本料理", "shopid": 21370317, "score1": "9.0", "score2": "8.1", "score3": "9.1", "lng": 114.120262, "lat": 22.54198}, {"name": "豚王", "address": "益田路5033号平安金融中心N603-B号铺", "avgprice": 85, "category": "日本料理", "shopid": 92769714, "score1": "7.5", "score2": "7.6", "score3": "7.5", "lng": 114.055657, "lat": 22.533084}, {"name": "事外英式居酒屋(中心城店)", "address": "福华路新怡景商业中心北门RL1090B号铺", "avgprice": 190, "category": "日本料理", "shopid": 59210101, "score1": "7.9", "score2": "9.1", "score3": "8.8", "lng": 114.059614, "lat": 22.536542}, {"name": "竹屿日本料理(下沙店)", "address": "下沙一坊69-102", "avgprice": 103, "category": "日本料理", "shopid": 93393508, "score1": "9.0", "score2": "8.8", "score3": "9.1", "lng": 114.024857, "lat": 22.527564}, {"name": "爆丼", "address": "民田路购物公园北园D区二楼", "avgprice": 93, "category": "日本料理", "shopid": 93485821, "score1": "8.1", "score2": "8.1", "score3": "8.6", "lng": 114.053427, "lat": 22.5365}, {"name": "黑旨烧肉(万象天地店)", "address": "深南大道华润万象天地6楼SL612", "avgprice": 160, "category": "日本料理", "shopid": 94311183, "score1": "7.4", "score2": "8.1", "score3": "7.4", "lng": 113.954214, "lat": 22.541107}, {"name": "渡来料亭", "address": "金田路现代国际大厦4楼", "avgprice": 564, "category": "日本料理", "shopid": 73607708, "score1": "8.5", "score2": "9.3", "score3": "9.1", "lng": 114.063603, "lat": 22.534101}, {"name": "龙界炉端烧活海鲜酒场", "address": "海田路辛诚花园2号铺", "avgprice": 372, "category": "日本料理", "shopid": 78001810, "score1": "8.5", "score2": "8.9", "score3": "8.8", "lng": 114.065938, "lat": 22.531618}, {"name": "极上萬膳日本料理·铁板烧(中心城店)", "address": "中心城L1层中庭", "avgprice": 291, "category": "日本料理", "shopid": 45848168, "score1": "8.0", "score2": "8.2", "score3": "7.5", "lng": 114.059584, "lat": 22.536129}, {"name": "青筠焱烧肉酒巷", "address": "福荣路万科金域蓝湾114-115铺", "avgprice": 226, "category": "日本料理", "shopid": 72341804, "score1": "9.0", "score2": "9.1", "score3": "9.1", "lng": 114.024821, "lat": 22.523496}, {"name": "月前居酒屋", "address": "海田路22号辛诚花园6号铺", "avgprice": 237, "category": "日本料理", "shopid": 70608194, "score1": "7.9", "score2": "8.5", "score3": "8.5", "lng": 114.06585, "lat": 22.53133}, {"name": "兰亭京都料理", "address": "香蜜湖1979创意文化园A区1栋6楼", "avgprice": 1082, "category": "日本料理", "shopid": 65984681, "score1": "8.5", "score2": "9.1", "score3": "9.1", "lng": 114.029561, "lat": 22.551153}, {"name": "南京大牌档(华强北九方店)", "address": "华强北振中路九方购物中心5楼L506铺", "avgprice": 65, "category": "江浙菜", "shopid": 76883679, "score1": "8.0", "score2": "8.8", "score3": "8.1", "lng": 114.08307, "lat": 22.542228}, {"name": "外婆家(宝安壹方城店)", "address": "新湖路102-75号壹方城负一楼", "avgprice": 74, "category": "江浙菜", "shopid": 96216449, "score1": "6.8", "score2": "7.8", "score3": "7.7", "lng": 113.887195, "lat": 22.553382}, {"name": "花塘(皇庭广场店)", "address": "福华三路118号皇庭广场B1层", "avgprice": 111, "category": "江浙菜", "shopid": 20649591, "score1": "8.2", "score2": "9.0", "score3": "8.4", "lng": 114.059288, "lat": 22.534009}, {"name": "吴莊(皇庭广场店)", "address": "福田街道福华三路皇庭广场B1层26-3号", "avgprice": 67, "category": "江浙菜", "shopid": 38051335, "score1": "8.0", "score2": "8.8", "score3": "8.2", "lng": 114.06036, "lat": 22.53339}, {"name": "70后饭吧(卓越INTOWN店)", "address": "卓越INTOWN购物中心二楼L215-217铺", "avgprice": 64, "category": "江浙菜", "shopid": 57030152, "score1": "7.6", "score2": "8.4", "score3": "7.6", "lng": 114.065079, "lat": 22.531669}, {"name": "胖哥俩肉蟹煲(星河COCO PARK店)", "address": "福田街道福华三路星河COCOPARK商场负一楼B1S-102商铺", "avgprice": 94, "category": "江浙菜", "shopid": 93719683, "score1": "7.6", "score2": "7.7", "score3": "7.2", "lng": 114.054527, "lat": 22.533417}, {"name": "新白鹿餐厅(京基KK ONE店)", "address": "滨河大道9289号滨河时代裙楼京基百纳时代四楼401a号商铺", "avgprice": 60, "category": "江浙菜", "shopid": 90981348, "score1": "7.4", "score2": "8.7", "score3": "8.1", "lng": 114.026306, "lat": 22.52859}, {"name": "绿茶(coco park 店)", "address": "购物公园COCOPark商场负一楼108号 ", "avgprice": 63, "category": "江浙菜", "shopid": 97213389, "score1": "7.8", "score2": "8.4", "score3": "7.5", "lng": 114.053993, "lat": 22.533556}, {"name": "绿茶餐厅(海岸城店)", "address": "文心五路33号海岸城购物中心5层", "avgprice": 68, "category": "江浙菜", "shopid": 9913482, "score1": "7.2", "score2": "7.6", "score3": "7.0", "lng": 113.934912, "lat": 22.517614}, {"name": "钱塘潮(Coco Park店)", "address": "福华三路CoCopark购物中心L2-J05", "avgprice": 104, "category": "江浙菜", "shopid": 13826745, "score1": "7.7", "score2": "8.1", "score3": "7.5", "lng": 114.054394, "lat": 22.533559}, {"name": "金牌小龙(益田假日广场店)", "address": "深南大道9028号华侨城威尼斯酒店旁益田假日广场B2层B2-34", "avgprice": 70, "category": "江浙菜", "shopid": 4100682, "score1": "7.0", "score2": "7.1", "score3": "6.7", "lng": 113.975641, "lat": 22.53701}, {"name": "南小馆(COCOPark店)", "address": "福华三路星河COCOPark购物公园2层", "avgprice": 77, "category": "江浙菜", "shopid": 15085189, "score1": "7.3", "score2": "8.0", "score3": "7.3", "lng": 114.0538290511388, "lat": 22.536047277539016}, {"name": "江南厨子(华润万象城店)", "address": "宝安南路1881号华润万象城一期4层", "avgprice": 144, "category": "江浙菜", "shopid": 524320, "score1": "7.8", "score2": "8.3", "score3": "7.6", "lng": 114.111, "lat": 22.54}, {"name": "鱼小妖(民间意境菜)", "address": "华侨城美食街105号海景嘉途酒店背面", "avgprice": 70, "category": "江浙菜", "shopid": 97085090, "score1": "8.6", "score2": "9.0", "score3": "8.4", "lng": 113.986168, "lat": 22.534919}, {"name": "西湖春天(侨香店)", "address": "农林路69号深国投广场2层", "avgprice": 117, "category": "江浙菜", "shopid": 4089067, "score1": "8.5", "score2": "8.6", "score3": "8.3", "lng": 114.011418, "lat": 22.544782}, {"name": "浙礼(天利店)", "address": "天利中央广场A座二楼", "avgprice": 65, "category": "江浙菜", "shopid": 17225616, "score1": "8.1", "score2": "8.1", "score3": "8.1", "lng": 113.933929, "lat": 22.518296}, {"name": "上海小南国(欢乐海岸店)", "address": "白石路东13号欢乐海岸曲水湾A-1F", "avgprice": 158, "category": "江浙菜", "shopid": 5375956, "score1": "7.4", "score2": "8.5", "score3": "7.4", "lng": 113.99275, "lat": 22.52482}, {"name": "TONY 饭堂", "address": "白石路东34号欢乐海岸曲水湾A-6B", "avgprice": 89, "category": "江浙菜", "shopid": 24744291, "score1": "7.4", "score2": "8.6", "score3": "7.5", "lng": 113.991968, "lat": 22.523855}, {"name": "六千馆(海岸城店)", "address": "文心五路33号海岸城购物中心5层", "avgprice": 66, "category": "江浙菜", "shopid": 5502449, "score1": "7.7", "score2": "7.9", "score3": "7.5", "lng": 113.936348, "lat": 22.516858}, {"name": "安小馆(岗厦店)", "address": "福华路322号文蔚大厦1楼", "avgprice": 74, "category": "江浙菜", "shopid": 17957358, "score1": "8.3", "score2": "8.8", "score3": "8.3", "lng": 114.069623, "lat": 22.535251}, {"name": "鱼非鱼(壹方城购物广场店)", "address": "壹方城购物广场B1层023商铺", "avgprice": 90, "category": "海鲜", "shopid": 92250040, "score1": "8.3", "score2": "8.7", "score3": "8.9", "lng": 113.888069, "lat": 22.553181}, {"name": "79号渔船海鲜主题饭店(寰宇店)", "address": "红岭中路1002号寰宇大厦南侧1-2楼", "avgprice": 171, "category": "海鲜", "shopid": 66996117, "score1": "8.2", "score2": "8.0", "score3": "7.4", "lng": 114.105104, "lat": 22.544024}, {"name": "强记海鲜菜馆(枫叶店)", "address": "南山大道南园枫叶广场105A", "avgprice": 156, "category": "海鲜", "shopid": 93262161, "score1": "9.0", "score2": "8.9", "score3": "8.9", "lng": 113.921102, "lat": 22.516258}, {"name": "嘻螺海鲜餐厅(海岸城店)", "address": "海德三道海岸城东座一楼商场中庭147号", "avgprice": 112, "category": "海鲜", "shopid": 69809788, "score1": "8.5", "score2": "7.8", "score3": "8.6", "lng": 113.937715, "lat": 22.518117}, {"name": "海仙会SEA FRESH海鲜姿造", "address": "文心三路9号中洲控股大厦B座裙楼二楼", "avgprice": 416, "category": "海鲜", "shopid": 27139871, "score1": "8.4", "score2": "9.0", "score3": "8.5", "lng": 113.933826, "lat": 22.517856}, {"name": "多嘴肉蟹煲(壹方城店)", "address": "新湖路壹方城B2层027号铺", "avgprice": 77, "category": "海鲜", "shopid": 95891290, "score1": "7.1", "score2": "7.4", "score3": "6.5", "lng": 113.889023, "lat": 22.552963}, {"name": "海大大蒸汽海鲜主题餐厅(欢乐颂店)", "address": "金鸡路34号四季丽晶大厦二楼", "avgprice": 212, "category": "海鲜", "shopid": 27009507, "score1": "8.9", "score2": "8.3", "score3": "8.6", "lng": 113.9201, "lat": 22.53414}, {"name": "船歌鱼水饺(福田COCO Park店)", "address": "福华三路星河COCOPark负一楼107号", "avgprice": 64, "category": "海鲜", "shopid": 95862365, "score1": "8.1", "score2": "8.0", "score3": "8.4", "lng": 114.054389, "lat": 22.532988}, {"name": "叫嚎oyoyster·仅配送", "address": "福华一路3号怡景中心城广场L层FL1023", "avgprice": 171, "category": "海鲜", "shopid": 28635559, "score1": "9.2", "score2": "9.1", "score3": "9.1", "lng": 114.05912008828716, "lat": 22.53541105768137}, {"name": "北海渔村(新华店)", "address": "民田路171号新华保险大厦2楼", "avgprice": 170, "category": "海鲜", "shopid": 561422, "score1": "7.9", "score2": "7.7", "score3": "7.4", "lng": 114.05275, "lat": 22.537367}, {"name": "辉记炭烧海鲜", "address": "南园路9号", "avgprice": 361, "category": "海鲜", "shopid": 77245738, "score1": "8.5", "score2": "7.7", "score3": "7.9", "lng": 114.09882, "lat": 22.538067}, {"name": "名港蒸汽海鲜", "address": "梅龙路共和商业广场1032-6号", "avgprice": 126, "category": "海鲜", "shopid": 93660468, "score1": "8.5", "score2": "8.4", "score3": "8.8", "lng": 114.039024, "lat": 22.647813}, {"name": "百姓渔村", "address": "桂庙新村路口", "avgprice": 81, "category": "海鲜", "shopid": 3664447, "score1": "7.8", "score2": "7.2", "score3": "7.3", "lng": 113.9323295, "lat": 22.52554825}, {"name": "海极鲜蒸汽美食坊(皇岗店)", "address": "皇岗上围三村38号一层", "avgprice": 187, "category": "海鲜", "shopid": 32348292, "score1": "8.7", "score2": "8.1", "score3": "8.1", "lng": 114.06192, "lat": 22.52558}, {"name": "胖哥俩肉蟹煲(华润1234店)", "address": "建设路3018号", "avgprice": 79, "category": "海鲜", "shopid": 59004177, "score1": "7.8", "score2": "8.1", "score3": "7.6", "lng": 114.11603, "lat": 22.54468}, {"name": "强记海鲜酒楼(汉京国际店)", "address": "登良路23号汉京国际大厦2L", "avgprice": 111, "category": "海鲜", "shopid": 92824889, "score1": "7.9", "score2": "8.6", "score3": "8.2", "lng": 113.924089, "lat": 22.511627}, {"name": "蒸鲜原味蒸汽海鲜(福田店)", "address": "深南大道6038号香蜜湖度假村美食城内", "avgprice": 227, "category": "海鲜", "shopid": 22457786, "score1": "8.7", "score2": "7.7", "score3": "7.9", "lng": 114.035602, "lat": 22.540774}, {"name": "天天渔港(福田店)", "address": "振中路88号爱华电脑城8栋", "avgprice": 82, "category": "海鲜", "shopid": 524845, "score1": "7.7", "score2": "7.2", "score3": "7.0", "lng": 114.091294, "lat": 22.542775}, {"name": "煮海(南山华侨城店)", "address": "华侨城光侨街3号", "avgprice": 189, "category": "海鲜", "shopid": 22568852, "score1": "7.9", "score2": "8.7", "score3": "8.4", "lng": 113.986074, "lat": 22.534754}, {"name": "蒸汽时代原味海鲜公馆(香蜜湖店)", "address": "香蜜湖度假村老刘野生大鱼坊隔壁", "avgprice": 263, "category": "海鲜", "shopid": 22908787, "score1": "8.2", "score2": "8.0", "score3": "7.7", "lng": 114.036813, "lat": 22.542035}, {"name": "农耕记(珠光店)", "address": "西丽镇珠光路50号茶光地铁D出口右转过桥十字路口", "avgprice": 74, "category": "湘菜", "shopid": 95896307, "score1": "7.5", "score2": "8.4", "score3": "7.4", "lng": 113.956243, "lat": 22.576251}, {"name": "俏九州(万象天地店)", "address": "深南大道9668号万象天地B124", "avgprice": 81, "category": "湘菜", "shopid": 94024495, "score1": "8.1", "score2": "8.0", "score3": "8.3", "lng": 113.955936, "lat": 22.541934}, {"name": "李师傅脆肚(红荔路店)", "address": "红荔路与工发路交汇处", "avgprice": 78, "category": "湘菜", "shopid": 2061277, "score1": "8.8", "score2": "7.5", "score3": "7.8", "lng": 114.084629, "lat": 22.548635}, {"name": "蛙小侠(壹方城店)", "address": "创业一路壹方购物中心5楼", "avgprice": 85, "category": "湘菜", "shopid": 95261203, "score1": "8.0", "score2": "8.4", "score3": "8.2", "lng": 113.88735, "lat": 22.55355}, {"name": "2046湘味厨房(科技园海王2店)", "address": "科技园海王银河科技大厦一层北向108铺港安驾校对面", "avgprice": 123, "category": "湘菜", "shopid": 67117131, "score1": "8.8", "score2": "9.0", "score3": "9.0", "lng": 113.941648, "lat": 22.540504}, {"name": "荷庭·精致湘菜(coco park店)", "address": "福华三路269号COCOPark3楼L3C-008,009,010商铺", "avgprice": 103, "category": "湘菜", "shopid": 21212115, "score1": "7.4", "score2": "8.1", "score3": "7.2", "lng": 114.054687, "lat": 22.533183}, {"name": "老湖南地锅土菜", "address": "白石路京基百纳广场武警警犬基地旁", "avgprice": 108, "category": "湘菜", "shopid": 66461562, "score1": "7.6", "score2": "6.9", "score3": "6.8", "lng": 113.972638, "lat": 22.529404}, {"name": "天宝兄弟虾蟹蛇", "address": "上梅林梅华路梅华1号楼首层最东侧", "avgprice": 124, "category": "湘菜", "shopid": 70133256, "score1": "9.1", "score2": "8.4", "score3": "9.0", "lng": 114.065262, "lat": 22.566222}, {"name": "陟上味道空中花园餐厅", "address": "展艺路35号艺览中心六楼601室", "avgprice": 82, "category": "湘菜", "shopid": 69883291, "score1": "7.8", "score2": "9.0", "score3": "7.8", "lng": 114.104971, "lat": 22.560134}, {"name": "君庭中餐馆", "address": "深南中路3007号国际科技大厦40、41层", "avgprice": 155, "category": "湘菜", "shopid": 17793009, "score1": "8.2", "score2": "9.1", "score3": "8.4", "lng": 114.083526, "lat": 22.539978}, {"name": "望湘园(皇庭广场店)", "address": "福华三路118号皇庭国商购物广场G层12号商铺", "avgprice": 78, "category": "湘菜", "shopid": 69285954, "score1": "8.0", "score2": "8.4", "score3": "7.9", "lng": 114.059785, "lat": 22.533439}, {"name": "荷庭小馆", "address": "人民路2020号龙华九方购物中心3层", "avgprice": 68, "category": "湘菜", "shopid": 19820739, "score1": "7.8", "score2": "8.4", "score3": "8.1", "lng": 114.021296, "lat": 22.627722}, {"name": "小辣椒(新闻路店)", "address": "新闻路景苑大厦a座二樓", "avgprice": 61, "category": "湘菜", "shopid": 79676724, "score1": "7.9", "score2": "7.6", "score3": "7.3", "lng": 114.046373, "lat": 22.542043}, {"name": "天下湘军(悦方广场店)", "address": "西丽镇留仙洞地铁站悦方广场2楼L208", "avgprice": 65, "category": "湘菜", "shopid": 63380717, "score1": "8.4", "score2": "8.6", "score3": "8.0", "lng": 113.944408, "lat": 22.581454}, {"name": "老字号鑫金顺餐厅", "address": "宝安大道与玉律路交汇处花香家园A162-166", "avgprice": 78, "category": "湘菜", "shopid": 69683717, "score1": "8.7", "score2": "9.0", "score3": "8.2", "lng": 113.88337, "lat": 22.565359}, {"name": "CIRCLE圈子里(购物公园店)", "address": "民田路138号购物公园2楼A221-226号", "avgprice": 82, "category": "湘菜", "shopid": 24066148, "score1": "7.8", "score2": "8.0", "score3": "7.5", "lng": 114.054157, "lat": 22.536396}, {"name": "湘见酒楼(东海缤纷天地店)", "address": "深南大道7888号东海缤纷天地负一楼", "avgprice": 105, "category": "湘菜", "shopid": 96662597, "score1": "6.9", "score2": "7.5", "score3": "7.1", "lng": 114.020048, "lat": 22.536614}, {"name": "娭毑厨房", "address": "景田路与莲花路交汇处景田酒店二、三楼", "avgprice": 93, "category": "湘菜", "shopid": 20643815, "score1": "7.8", "score2": "8.0", "score3": "7.5", "lng": 114.044099, "lat": 22.552938}, {"name": "湘江老厨(海岸城店)", "address": "文心五路33号海岸城购物中心5层", "avgprice": 92, "category": "湘菜", "shopid": 24888861, "score1": "7.7", "score2": "8.2", "score3": "7.4", "lng": 113.935727, "lat": 22.51707}, {"name": "芙蓉楼(华侨城店)", "address": "侨城西街10号", "avgprice": 84, "category": "湘菜", "shopid": 22569102, "score1": "8.2", "score2": "8.4", "score3": "7.9", "lng": 113.983052, "lat": 22.537621}, {"name": "钢管厂五区小郡肝串串香火锅(总店)", "address": "南山大道2011-3", "avgprice": 116, "category": "火锅", "shopid": 93080482, "score1": "8.2", "score2": "7.6", "score3": "7.5", "lng": 113.923484, "lat": 22.525118}, {"name": "潮汕百年老字号福合埕牛肉火锅店(东园店)", "address": "巴登街滨江大厦8号商铺", "avgprice": 96, "category": "牛肉火锅", "shopid": 96296450, "score1": "8.2", "score2": "8.0", "score3": "7.7", "lng": 114.102285, "lat": 22.538237}, {"name": "海底捞火锅(福华三路店)", "address": "福华三路卓越世纪潮流会场L401/L402", "avgprice": 133, "category": "火锅", "shopid": 8039208, "score1": "8.8", "score2": "9.0", "score3": "9.2", "lng": 114.06495, "lat": 22.53226}, {"name": "刘宝老家铜锅串串(深圳总店)", "address": "上梅林梅华路奥士达大厦二期一层B109", "avgprice": 84, "category": "四川火锅", "shopid": 96098927, "score1": "8.1", "score2": "8.3", "score3": "7.9", "lng": 114.059841, "lat": 22.564443}, {"name": "汕头八合里海记牛肉店(购物公园店)", "address": "福田街道民田路购物公园北园A区220", "avgprice": 93, "category": "牛肉火锅", "shopid": 65550448, "score1": "8.9", "score2": "7.7", "score3": "7.7", "lng": 114.054554, "lat": 22.536425}, {"name": "蜀大侠火锅•成都味儿(福田店)", "address": "福华路60号农贸大厦一层", "avgprice": 119, "category": "四川火锅", "shopid": 90048566, "score1": "8.7", "score2": "8.6", "score3": "7.9", "lng": 114.084418, "lat": 22.537797}, {"name": "大龙燚火锅(南山大道店)", "address": "南山大道2009号一楼D区", "avgprice": 126, "category": "四川火锅", "shopid": 52342736, "score1": "8.2", "score2": "8.0", "score3": "8.0", "lng": 113.923545, "lat": 22.525712}, {"name": "正宗钢管厂五区小郡肝串串香火锅", "address": "南商路深蓝公寓底商", "avgprice": 102, "category": "四川火锅", "shopid": 95340810, "score1": "7.9", "score2": "8.1", "score3": "8.0", "lng": 113.928433, "lat": 22.512874}, {"name": "湊湊火锅·茶憩(卓越世纪店)", "address": "福田街道福华三路卓越INTOWN商场1层-2层L117/L211", "avgprice": 117, "category": "火锅", "shopid": 93227294, "score1": "8.5", "score2": "9.2", "score3": "9.1", "lng": 114.0643799612917, "lat": 22.53166910585867}, {"name": "食途(中心城店)", "address": "福华一路怡景中心城负2层FG009号商铺", "avgprice": 96, "category": "火锅", "shopid": 96268890, "score1": "8.6", "score2": "9.0", "score3": "8.6", "lng": 114.059685, "lat": 22.535753}, {"name": "九号码头花胶主题火锅料理(皇庭广场店)", "address": "福华三路118号皇庭广场1层", "avgprice": 151, "category": "火锅", "shopid": 56777352, "score1": "8.3", "score2": "8.5", "score3": "8.0", "lng": 114.059839, "lat": 22.533323}, {"name": "灵境胡同京味儿火锅", "address": "福田街道怡景中心城L层FL1013", "avgprice": 119, "category": "老北京火锅", "shopid": 72451917, "score1": "7.0", "score2": "7.9", "score3": "7.5", "lng": 114.06015, "lat": 22.53592}, {"name": "润园四季椰子鸡(卓越INTOWN店)", "address": "福华三路与金田路交汇处卓越intown3楼", "avgprice": 125, "category": "火锅", "shopid": 65941851, "score1": "8.6", "score2": "8.8", "score3": "7.9", "lng": 114.065333, "lat": 22.532286}, {"name": "四季椰林椰子鸡(皇庭店)", "address": "福华三路118号皇庭广场L1-20", "avgprice": 111, "category": "火锅", "shopid": 26996852, "score1": "8.5", "score2": "8.8", "score3": "8.0", "lng": 114.05993, "lat": 22.53317}, {"name": "湊湊·火锅·茶憩(来福士广场店)", "address": "南海大道2163号来福士广场1期4层415", "avgprice": 130, "category": "火锅", "shopid": 83508677, "score1": "8.1", "score2": "9.0", "score3": "8.8", "lng": 113.925628, "lat": 22.511957}, {"name": "卅卅SASA", "address": "梅林街道北环大道6098号绿景佐阾虹湾购物中心L2008号", "avgprice": 75, "category": "四川火锅", "shopid": 74611785, "score1": "8.5", "score2": "8.9", "score3": "8.8", "lng": 114.038691, "lat": 22.560675}, {"name": "香港九记牛腩大王", "address": "东门步行街鸿展中心城负一楼", "avgprice": 92, "category": "火锅", "shopid": 58571733, "score1": "8.2", "score2": "7.7", "score3": "7.9", "lng": 114.119501, "lat": 22.545723}, {"name": "小龙坎老火锅(罗湖店)", "address": "东门南路3016号", "avgprice": 118, "category": "四川火锅", "shopid": 90489300, "score1": "7.9", "score2": "8.0", "score3": "8.3", "lng": 114.122799, "lat": 22.542579}, {"name": "邂逅椰子鸡(福田店)", "address": "福田路24号海岸中心一层L105", "avgprice": 116, "category": "火锅", "shopid": 94025292, "score1": "9.2", "score2": "9.1", "score3": "9.2", "lng": 114.07755, "lat": 22.53233}, {"name": "乐宴老北京铜火锅", "address": "八卦一路美食街鹏盛年华105号", "avgprice": 122, "category": "火锅", "shopid": 22057441, "score1": "7.9", "score2": "7.9", "score3": "7.1", "lng": 114.09993, "lat": 22.556813}, {"name": "嘻游记(壹方中心店)", "address": "新湖路壹方城购物广场L1层043商铺", "avgprice": 111, "category": "烧烤", "shopid": 95954386, "score1": "8.3", "score2": "8.9", "score3": "8.9", "lng": 113.887191, "lat": 22.553467}, {"name": "极炙·台湾精致炭火烧肉(京基100大厦店)", "address": "红宝路蔡屋围5街48号涵舍3楼", "avgprice": 217, "category": "烧烤", "shopid": 91606013, "score1": "9.1", "score2": "8.7", "score3": "9.2", "lng": 114.10775, "lat": 22.5455}, {"name": "橘焱胡同烧肉夜食(保利店)", "address": "文心六路保利文化广场A区", "avgprice": 380, "category": "烧烤", "shopid": 57504830, "score1": "9.0", "score2": "9.0", "score3": "9.2", "lng": 113.93906, "lat": 22.517178}, {"name": "姜虎东白丁烤肉(壹方城店)", "address": "新湖路壹方城购物中心二楼017a", "avgprice": 119, "category": "烧烤", "shopid": 95962377, "score1": "7.7", "score2": "7.9", "score3": "7.6", "lng": 113.88717, "lat": 22.553324}, {"name": "白玉串城(南山店)", "address": "南山大道易四方美食城104A商铺", "avgprice": 74, "category": "烧烤", "shopid": 93996266, "score1": "9.0", "score2": "9.1", "score3": "9.0", "lng": 113.920706, "lat": 22.516315}, {"name": "个斑马音乐烧烤吧(香蜜湖店)", "address": "香蜜湖度假村内", "avgprice": 93, "category": "烧烤", "shopid": 51439514, "score1": "8.1", "score2": "8.3", "score3": "7.9", "lng": 114.035084, "lat": 22.541311}, {"name": "炊牛家烤肉", "address": "深南东路金丰城大厦一楼5015-12商铺", "avgprice": 108, "category": "烧烤", "shopid": 91687924, "score1": "8.3", "score2": "8.0", "score3": "7.8", "lng": 114.109942, "lat": 22.541211}, {"name": "慕炭东北烤肉(前海路店)", "address": "前海路大新前海商业中心2楼", "avgprice": 109, "category": "烧烤", "shopid": 65395638, "score1": "8.7", "score2": "8.3", "score3": "8.5", "lng": 113.915338, "lat": 22.53476}, {"name": "源燒酒場｜日式炭火燒肉(kk mall店)", "address": "深南东路5016号KKMALL购物中心1楼123AB", "avgprice": 183, "category": "烧烤", "shopid": 67258231, "score1": "8.3", "score2": "8.7", "score3": "8.0", "lng": 114.10742, "lat": 22.54411}, {"name": "新灯火烧烤", "address": "园岭三街趣园食街102号", "avgprice": 101, "category": "烧烤", "shopid": 93272829, "score1": "9.0", "score2": "7.9", "score3": "8.9", "lng": 114.101417, "lat": 22.55001}, {"name": "李记湛光蚝莊(二分店)", "address": "白石洲一街东一坊101号", "avgprice": 83, "category": "烧烤", "shopid": 92371749, "score1": "8.5", "score2": "8.3", "score3": "8.4", "lng": 113.96758, "lat": 22.53567}, {"name": "丹东特色烤肉(学府路一部店)", "address": "学府路荔馨村综合楼南面7号铺", "avgprice": 99, "category": "烧烤", "shopid": 17198912, "score1": "8.6", "score2": "7.3", "score3": "7.5", "lng": 113.92362, "lat": 22.528065}, {"name": "LAL撸阿撸烧烤吧(南山枫叶店)", "address": "南山大道南园枫叶大厦易四方美食广场内110A-1号铺", "avgprice": 112, "category": "烧烤", "shopid": 79421951, "score1": "8.1", "score2": "8.0", "score3": "8.2", "lng": 113.921286, "lat": 22.516592}, {"name": "8090东北泥炉烤肉(新安分店)", "address": "宝民一路与新圳路交叉口旁", "avgprice": 83, "category": "烧烤", "shopid": 83438704, "score1": "8.8", "score2": "7.2", "score3": "7.7", "lng": 113.903829, "lat": 22.560266}, {"name": "秀炭现穿羊肉串(南山店)", "address": "创业路26号怡海广场C座1-2楼", "avgprice": 78, "category": "烧烤", "shopid": 95279538, "score1": "8.9", "score2": "8.6", "score3": "8.4", "lng": 113.92500975228758, "lat": 22.516380382866043}, {"name": "小猪小牛章鱼水煎肉", "address": "福华三路皇庭广场B1层摩卡湾B1-H-4", "avgprice": 80, "category": "烧烤", "shopid": 92679647, "score1": "7.5", "score2": "7.9", "score3": "7.7", "lng": 114.059851, "lat": 22.533652}, {"name": "八零九零碳烤肥牛(福田店)", "address": "下梅林梅亭路文体公园2-27", "avgprice": 90, "category": "烧烤", "shopid": 27498952, "score1": "8.5", "score2": "8.5", "score3": "8.6", "lng": 114.043167, "lat": 22.567857}, {"name": "胡哥烤肥牛(梅林店)", "address": "多丽工业区", "avgprice": 102, "category": "烧烤", "shopid": 91061763, "score1": "8.1", "score2": "7.5", "score3": "7.5", "lng": 114.055136, "lat": 22.563149}, {"name": "汉阳馆烤肉大师(壹方城店)", "address": "新湖路99号壹方城L3层013号", "avgprice": 189, "category": "烧烤", "shopid": 95962393, "score1": "7.8", "score2": "8.6", "score3": "7.4", "lng": 113.887216, "lat": 22.553429}, {"name": "天台上见烧烤(白石洲店)", "address": "白石洲石洲中路116号3楼", "avgprice": 108, "category": "烧烤", "shopid": 92375500, "score1": "8.5", "score2": "8.0", "score3": "7.9", "lng": 113.96742, "lat": 22.535528}, {"name": "半饱半醉(万象天地店)", "address": "深南大道9668号万象天地里巷二楼NL260", "avgprice": 101, "category": "私房菜", "shopid": 94024802, "score1": "7.2", "score2": "7.8", "score3": "7.3", "lng": 113.954239, "lat": 22.541091}, {"name": "花莛别院 | 最牛的私房菜", "address": "中康路8号雕塑家园1栋123、124", "avgprice": 82, "category": "私房菜", "shopid": 93308085, "score1": "7.8", "score2": "7.6", "score3": "8.0", "lng": 114.0604422886812, "lat": 22.56350962056347}, {"name": "1949华家里(欢乐海岸购物中心店)", "address": "白石路东8号欢乐海岸购物中心3层", "avgprice": 606, "category": "私房菜", "shopid": 28595384, "score1": "6.4", "score2": "7.3", "score3": "6.4", "lng": 113.990093, "lat": 22.525853}, {"name": "经典中央大街私房菜", "address": "汕头街东部市场201号", "avgprice": 112, "category": "私房菜", "shopid": 4109115, "score1": "7.7", "score2": "8.2", "score3": "7.7", "lng": 113.991977, "lat": 22.538237}, {"name": "美雅私厨空中花园", "address": "香蜜湖度假村公交派出所南侧4号", "avgprice": 100, "category": "私房菜", "shopid": 77237112, "score1": "8.1", "score2": "8.0", "score3": "7.3", "lng": 114.03518, "lat": 22.5395}, {"name": "咪秀私房菜(景田店)", "address": "红荔西路与景田路交界金色假日名苑2楼201室", "avgprice": 69, "category": "私房菜", "shopid": 3272239, "score1": "8.3", "score2": "8.0", "score3": "8.2", "lng": 114.044653, "lat": 22.546245}, {"name": "体面私房菜", "address": "华侨城体育中心二楼", "avgprice": 50, "category": "私房菜", "shopid": 22424790, "score1": "6.9", "score2": "6.9", "score3": "6.9", "lng": 113.982844, "lat": 22.540064}, {"name": "下沙老兵牛蹄店", "address": "沙头街道下沙一坊69-101", "avgprice": 34, "category": "私房菜", "shopid": 90578854, "score1": "8.1", "score2": "6.9", "score3": "7.7", "lng": 114.024683, "lat": 22.527545}, {"name": "大唐靓汤私房菜(红荔西路店)", "address": "红荔西路凯旋豪庭1楼108号", "avgprice": 75, "category": "私房菜", "shopid": 2557804, "score1": "8.1", "score2": "7.1", "score3": "7.5", "lng": 114.046905, "lat": 22.54783}, {"name": "三清一味健康私厨(万科星火店)", "address": "五和大道南2号万科星火Online11栋", "avgprice": 140, "category": "私房菜", "shopid": 67672866, "score1": "7.4", "score2": "9.0", "score3": "7.8", "lng": 114.063533, "lat": 22.605733}, {"name": "毛爹私房菜", "address": "香梅路香蜜湖公寓B座1楼", "avgprice": 113, "category": "私房菜", "shopid": 8837375, "score1": "7.6", "score2": "6.8", "score3": "6.5", "lng": 114.039839, "lat": 22.540023}, {"name": "四海小厨", "address": "招商街道公园路82-1号", "avgprice": 91, "category": "私房菜", "shopid": 24643905, "score1": "7.5", "score2": "7.8", "score3": "7.4", "lng": 113.924871, "lat": 22.495391}, {"name": "祥瑞轩私房菜", "address": "新洲十一街祥祺大厦5楼", "avgprice": 0, "category": "私房菜", "shopid": 97135007, "score1": "7.4", "score2": "7.4", "score3": "7.4", "lng": 114.042929, "lat": 22.526719}, {"name": "十田味舍", "address": "大鹏古城南门刘屋巷12号", "avgprice": 88, "category": "私房菜", "shopid": 67074777, "score1": "8.4", "score2": "8.5", "score3": "8.6", "lng": 114.51313, "lat": 22.594197}, {"name": "梦空间", "address": "侨城东路99号", "avgprice": 80, "category": "私房菜", "shopid": 76991094, "score1": "7.2", "score2": "7.8", "score3": "7.5", "lng": 113.99583, "lat": 22.53997}, {"name": "无刺可挑(城市假日店)", "address": "龙珠五路城市假日花园1楼", "avgprice": 114, "category": "私房菜", "shopid": 2089354, "score1": "7.2", "score2": "7.4", "score3": "7.1", "lng": 113.978437, "lat": 22.5633}, {"name": "六号馆", "address": "侨香路鸿新花园三期二楼", "avgprice": 155, "category": "私房菜", "shopid": 66150525, "score1": "7.0", "score2": "7.0", "score3": "6.9", "lng": 114.00571, "lat": 22.544159}, {"name": "鄂人邦湖北菜", "address": "鸿景园5栋", "avgprice": 57, "category": "私房菜", "shopid": 67974052, "score1": "7.5", "score2": "7.6", "score3": "7.9", "lng": 113.891058, "lat": 22.573412}, {"name": "一席私房菜", "address": "环观中路52号2楼", "avgprice": 90, "category": "私房菜", "shopid": 81002354, "score1": "7.0", "score2": "7.0", "score3": "7.0", "lng": 114.05812008502237, "lat": 22.703730174393392}, {"name": "静茶道私房菜茶艺馆(1979店)", "address": "侨香东路1011号1979文化新天地B区4层", "avgprice": 0, "category": "私房菜", "shopid": 32771469, "score1": "7.3", "score2": "7.5", "score3": "7.4", "lng": 114.030238, "lat": 22.552078}, {"name": "利宝阁(嘉里店)", "address": "中心四路嘉里建设广场三座2楼", "avgprice": 164, "category": "粤菜馆", "shopid": 15104339, "score1": "8.7", "score2": "9.1", "score3": "8.4", "lng": 114.057209, "lat": 22.535242}, {"name": "翠园JADE GARDEN(益田假日广场店)", "address": "深南大道9028号益田假日广场L2楼22-31号", "avgprice": 268, "category": "粤菜馆", "shopid": 8848800, "score1": "8.9", "score2": "9.1", "score3": "8.7", "lng": 113.9761, "lat": 22.53716}, {"name": "點都德(卓悦汇店)", "address": "中康路126号卓悦汇购物中心一、二楼点都德", "avgprice": 87, "category": "粤菜馆", "shopid": 93427966, "score1": "8.2", "score2": "8.2", "score3": "7.7", "lng": 114.060195, "lat": 22.569783}, {"name": "唐宫小聚(海岸城店)", "address": "文心四路33号海岸城购物中心东区1层128号铺", "avgprice": 95, "category": "粤菜馆", "shopid": 32529627, "score1": "8.0", "score2": "8.6", "score3": "8.0", "lng": 113.936003, "lat": 22.517158}, {"name": "凤凰楼", "address": "华强北路4002号圣廷苑酒店东区1-3楼", "avgprice": 111, "category": "粤菜馆", "shopid": 523813, "score1": "8.3", "score2": "8.2", "score3": "7.7", "lng": 114.088234, "lat": 22.549519}, {"name": "蘩楼(宝安南路店)", "address": "宝安南路2078号深港豪苑名商阁2樓", "avgprice": 70, "category": "粤菜馆", "shopid": 92497372, "score1": "8.3", "score2": "8.6", "score3": "7.9", "lng": 114.109731, "lat": 22.550318}, {"name": "陈鹏鹏鹅肉饭店(欢乐海岸店)", "address": "白石路东12号欢乐海岸曲水湾A-1E", "avgprice": 106, "category": "潮汕菜", "shopid": 67935669, "score1": "8.4", "score2": "7.6", "score3": "7.7", "lng": 113.99186, "lat": 22.523733}, {"name": "稻香(皇庭广场店)", "address": "福华三路118号皇庭广场B1层B1-8", "avgprice": 89, "category": "粤菜馆", "shopid": 67327343, "score1": "7.5", "score2": "8.1", "score3": "7.3", "lng": 114.059163, "lat": 22.533167}, {"name": "膳鼎卤鹅", "address": "连城新天地二期A06", "avgprice": 78, "category": "潮汕菜", "shopid": 92570808, "score1": "8.2", "score2": "8.1", "score3": "8.1", "lng": 114.062638, "lat": 22.534424}, {"name": "唐宫海鲜舫(东门店)", "address": "新园路1号中海商城6楼", "avgprice": 109, "category": "粤菜馆", "shopid": 521923, "score1": "8.4", "score2": "8.4", "score3": "7.7", "lng": 114.11709, "lat": 22.54565}, {"name": "潮香四海(正宗潮汕风味)", "address": "下沙三坊49号", "avgprice": 71, "category": "潮汕菜", "shopid": 67787887, "score1": "8.6", "score2": "7.8", "score3": "8.6", "lng": 114.027247, "lat": 22.525669}, {"name": "利苑酒家(宝安南路店)", "address": "宝安南路1881号万象城二期3楼S348号", "avgprice": 423, "category": "粤菜馆", "shopid": 3569335, "score1": "8.7", "score2": "8.9", "score3": "8.6", "lng": 114.1112, "lat": 22.53794}, {"name": "唐宫(万象天地店)", "address": "华润万象天地第L1层SL135号商铺", "avgprice": 122, "category": "粤菜馆", "shopid": 95972982, "score1": "7.1", "score2": "7.4", "score3": "6.4", "lng": 113.955904, "lat": 22.541018}, {"name": "顺意-顺德家乡菜", "address": "福华一路88号中心商务大厦三楼", "avgprice": 118, "category": "粤菜", "shopid": 69224221, "score1": "8.3", "score2": "8.9", "score3": "8.3", "lng": 114.052461, "lat": 22.537114}, {"name": "潮汕小厨(壹方城店)", "address": "新湖路99号壹方城L4层028-029", "avgprice": 83, "category": "潮汕菜", "shopid": 95965205, "score1": "7.1", "score2": "8.0", "score3": "7.4", "lng": 113.88724, "lat": 22.55371}, {"name": "渔米粥(罗湖店)", "address": "春风路3068号置地广场2楼3068号", "avgprice": 135, "category": "粤菜", "shopid": 2405236, "score1": "8.2", "score2": "8.1", "score3": "7.4", "lng": 114.121053, "lat": 22.537115}, {"name": "稻香酒家(海岸城分店)", "address": "文心五路33号海岸城购物中心五层501-9号", "avgprice": 92, "category": "粤菜馆", "shopid": 5504985, "score1": "7.6", "score2": "8.1", "score3": "7.5", "lng": 113.93651, "lat": 22.51668}, {"name": "金皇廷", "address": "金田路3037号金中环商务大厦裙楼5楼", "avgprice": 103, "category": "粤菜馆", "shopid": 2202865, "score1": "8.3", "score2": "8.6", "score3": "7.8", "lng": 114.062839, "lat": 22.534008}, {"name": "日日香鹅肉饭店", "address": "新湖路102-6号", "avgprice": 0, "category": "潮汕菜", "shopid": 97762630, "score1": "7.1", "score2": "7.2", "score3": "7.2", "lng": 113.88916, "lat": 22.552388}, {"name": "华洋酒楼", "address": "水湾路14号", "avgprice": 73, "category": "粤菜馆", "shopid": 522212, "score1": "7.9", "score2": "7.1", "score3": "7.2", "lng": 113.921178, "lat": 22.488015}, {"name": "石磨竹窝肠粉", "address": "兴华一路富怡花园底商", "avgprice": 10, "category": "粥粉面", "shopid": 40084267, "score1": "8.3", "score2": "6.8", "score3": "7.4", "lng": 113.89933, "lat": 22.55953}, {"name": "乐道肠粉王", "address": "学府路荔芳村B栋113-8号", "avgprice": 20, "category": "粥粉面", "shopid": 96087702, "score1": "7.2", "score2": "7.1", "score3": "7.0", "lng": 113.922695, "lat": 22.527591}, {"name": "来自流沙肠粉(爱联店)", "address": "龙岗中心城三十四号路", "avgprice": 19, "category": "粥粉面", "shopid": 92372448, "score1": "7.7", "score2": "7.5", "score3": "7.6", "lng": 114.22818, "lat": 22.696401}, {"name": "砂锅土豆粉", "address": "东门街道解放路金世界二楼星光美食街D12", "avgprice": 0, "category": "粥粉面", "shopid": 93181299, "score1": "7.2", "score2": "7.2", "score3": "7.2", "lng": 114.117456, "lat": 22.545335}, {"name": "姐妹俩土豆粉(岗厦店)", "address": "福田街道岗厦彩福大厦商业裙楼首层A02", "avgprice": 0, "category": "粥粉面", "shopid": 92497712, "score1": "7.7", "score2": "7.5", "score3": "7.6", "lng": 114.067597, "lat": 22.536031}, {"name": "潮善普宁肠粉(岗厦店)", "address": "岗厦东三坊218号-2", "avgprice": 0, "category": "粥粉面", "shopid": 97276774, "score1": "6.7", "score2": "6.8", "score3": "6.8", "lng": 114.069023, "lat": 22.538646}, {"name": "余记肠粉王", "address": "新沙路352号", "avgprice": 10, "category": "粥粉面", "shopid": 66550204, "score1": "7.4", "score2": "7.2", "score3": "7.2", "lng": 113.820334, "lat": 22.72972}, {"name": "馀小面", "address": "坂田万科城小西门一栋C107", "avgprice": 15, "category": "粥粉面", "shopid": 28615777, "score1": "7.1", "score2": "6.6", "score3": "6.9", "lng": 114.06692, "lat": 22.64425}, {"name": "普宁阿肥肠粉", "address": "华强北街道新曼哈B座美食街广场15号", "avgprice": 15, "category": "粥粉面", "shopid": 57276732, "score1": "7.3", "score2": "7.1", "score3": "7.0", "lng": 114.086955, "lat": 22.545829}, {"name": "仟味肠粉", "address": "龙华区观澜电子市场大和路262号", "avgprice": 0, "category": "粥粉面", "shopid": 92919091, "score1": "7.0", "score2": "7.0", "score3": "7.0", "lng": 114.049952, "lat": 22.700988}, {"name": "b仔肠粉(中心村店)", "address": "新洲二街78-1", "avgprice": 0, "category": "粥粉面", "shopid": 96302052, "score1": "7.2", "score2": "7.0", "score3": "7.1", "lng": 114.046636, "lat": 22.521799}, {"name": "好滋味土豆粉", "address": "西丽街道新围村旺棠工业区22栋", "avgprice": 12, "category": "粥粉面", "shopid": 66333908, "score1": "7.1", "score2": "7.1", "score3": "7.5", "lng": 113.949232, "lat": 22.585508}, {"name": "怡顺担担面(沙井店)", "address": "沙井镇新沙路116号", "avgprice": 15, "category": "粥粉面", "shopid": 19412689, "score1": "7.5", "score2": "7.5", "score3": "7.3", "lng": 113.835775, "lat": 22.729484}, {"name": "鑫泰泰潮汕特色肠粉(白石洲上白石店)", "address": "沙河街道白石洲下白石36号-3", "avgprice": 0, "category": "粥粉面", "shopid": 93005331, "score1": "7.2", "score2": "6.9", "score3": "7.2", "lng": 113.968041, "lat": 22.542297}, {"name": "蜀国皇庭面馆(宏发大厦店)", "address": "创业一路1004号宏发大厦3栋A49铺", "avgprice": 24, "category": "粥粉面", "shopid": 6859998, "score1": "7.4", "score2": "7.0", "score3": "7.1", "lng": 113.88907, "lat": 22.555033}, {"name": "北山道肠粉", "address": "北山道新联华物流旁", "avgprice": 19, "category": "粥粉面", "shopid": 66868404, "score1": "7.0", "score2": "6.9", "score3": "6.9", "lng": 114.255202, "lat": 22.593332}, {"name": "高记肠粉王", "address": "桃源街道龙珠七路中爱花园首层125号铺", "avgprice": 0, "category": "粥粉面", "shopid": 93232518, "score1": "7.0", "score2": "7.0", "score3": "7.3", "lng": 113.984498, "lat": 22.560919}, {"name": "普宁现磨肠粉店", "address": "新安街道45区自由路综合楼一层25-4号", "avgprice": 0, "category": "粥粉面", "shopid": 93467093, "score1": "7.1", "score2": "7.1", "score3": "7.1", "lng": 113.893655, "lat": 22.565006}, {"name": "林记肠粉", "address": "星海名城1号路2号铺", "avgprice": 0, "category": "粥粉面", "shopid": 22081306, "score1": "7.0", "score2": "6.7", "score3": "7.0", "lng": 113.913577, "lat": 22.535525}, {"name": "我叫肠粉(招商依山郡店)", "address": "龙岗中心城黄阁路招商依山郡15栋102号商铺", "avgprice": 18, "category": "粥粉面", "shopid": 77290245, "score1": "7.5", "score2": "7.1", "score3": "7.3", "lng": 114.21878, "lat": 22.72952}, {"name": "爱上素食(福慧店)", "address": "松园路鸿翔花园商铺1栋2楼", "avgprice": 50, "category": "素菜", "shopid": 96191604, "score1": "9.0", "score2": "9.2", "score3": "9.1", "lng": 114.106201, "lat": 22.552779}, {"name": "万善天厨素食馆", "address": "华强北街道振兴路99-4号", "avgprice": 69, "category": "素菜", "shopid": 76085002, "score1": "8.8", "score2": "9.0", "score3": "9.1", "lng": 114.083272, "lat": 22.546273}, {"name": "新梅园圆通素食(泰然店)", "address": "深南大道泰然九路车公庙泰安轩B座首层", "avgprice": 49, "category": "素菜", "shopid": 524539, "score1": "8.1", "score2": "7.9", "score3": "7.6", "lng": 114.024994, "lat": 22.533776}, {"name": "若蘭慈素食馆", "address": "白石路东25号欢乐海岸曲水湾A-2J", "avgprice": 183, "category": "素菜", "shopid": 21906645, "score1": "8.2", "score2": "9.1", "score3": "8.6", "lng": 113.992642, "lat": 22.523784}, {"name": "静颐茶馆", "address": "宝安南路3038号金塘大厦7楼", "avgprice": 87, "category": "素菜", "shopid": 522882, "score1": "8.3", "score2": "9.0", "score3": "7.9", "lng": 114.10963, "lat": 22.55235}, {"name": "格琳素席", "address": "福华路现代国际大厦5楼", "avgprice": 208, "category": "素菜", "shopid": 90016426, "score1": "8.2", "score2": "9.1", "score3": "9.1", "lng": 114.063673, "lat": 22.534391}, {"name": "延武禅堂素食馆", "address": "福田南路7号皇城广场四楼", "avgprice": 0, "category": "素菜", "shopid": 97299188, "score1": "8.0", "score2": "8.0", "score3": "8.0", "lng": 114.076099, "lat": 22.524854}, {"name": "天籽·蔬食餐厅(关山月美术馆店)", "address": "红荔西路6026号关山月美术馆一楼", "avgprice": 106, "category": "素菜", "shopid": 27525116, "score1": "8.2", "score2": "8.4", "score3": "7.6", "lng": 114.063708, "lat": 22.549221}, {"name": "云来居素食馆(南山店)", "address": "南山大道与创业路交汇处亿利达大厦6楼", "avgprice": 107, "category": "素菜", "shopid": 6064195, "score1": "8.5", "score2": "9.0", "score3": "8.9", "lng": 113.92223, "lat": 22.51784}, {"name": "桐城小筑素食馆", "address": "坂田雅园路中海月朗苑旁边手造文化街B120、B220-224", "avgprice": 66, "category": "素菜", "shopid": 17160491, "score1": "8.5", "score2": "8.9", "score3": "8.4", "lng": 114.064467, "lat": 22.61519}, {"name": "藏巴拉素食馆", "address": "沙河街道华侨城东部市场三楼302室", "avgprice": 59, "category": "素菜", "shopid": 65648350, "score1": "8.2", "score2": "8.3", "score3": "8.3", "lng": 113.992128, "lat": 22.538122}, {"name": "三修堂素菜馆", "address": "香蜜湖美食城娱乐城门广场A16号", "avgprice": 161, "category": "素菜", "shopid": 9969741, "score1": "7.9", "score2": "8.3", "score3": "8.1", "lng": 114.033776, "lat": 22.542218}, {"name": "弘法寺斋菜馆素食", "address": "莲塘街道仙湖路110号佛照楼二楼", "avgprice": 84, "category": "素菜", "shopid": 76882585, "score1": "8.4", "score2": "8.2", "score3": "8.7", "lng": 114.166578, "lat": 22.566863}, {"name": "香积斋素食餐厅", "address": "东部华侨城华兴寺内", "avgprice": 116, "category": "素菜", "shopid": 3590056, "score1": "7.9", "score2": "8.3", "score3": "7.6", "lng": 114.287666, "lat": 22.626673}, {"name": "六和茶馆", "address": "玉泉路89号五栋六楼", "avgprice": 64, "category": "素菜", "shopid": 9324210, "score1": "7.5", "score2": "8.1", "score3": "7.5", "lng": 113.925152, "lat": 22.54594}, {"name": "一卷蔬食", "address": "同沙路与新高路交叉口迪嘉商城2楼", "avgprice": 38, "category": "素菜", "shopid": 92511663, "score1": "8.5", "score2": "8.2", "score3": "8.8", "lng": 113.951155, "lat": 22.583882}, {"name": "静素斋菜", "address": "国威路117-3号2楼", "avgprice": 16, "category": "素菜", "shopid": 24107022, "score1": "7.9", "score2": "8.0", "score3": "7.9", "lng": 114.17322, "lat": 22.563968}, {"name": "品茶居素食馆", "address": "爱国路1022号建国大厦2楼", "avgprice": 71, "category": "素菜", "shopid": 2465662, "score1": "7.4", "score2": "7.9", "score3": "7.6", "lng": 114.132267, "lat": 22.551226}, {"name": "福田林素食馆(岁宝百货万象店)", "address": "桂庙路岁宝百货万象店2楼", "avgprice": 74, "category": "素菜", "shopid": 2578411, "score1": "7.8", "score2": "7.8", "score3": "8.0", "lng": 113.927670000157, "lat": 22.5240399999467}, {"name": "三宝斋素菜馆", "address": "龙城大道盛平金紫薇酒店4F", "avgprice": 33, "category": "素菜", "shopid": 74572557, "score1": "7.7", "score2": "7.8", "score3": "7.6", "lng": 114.253234, "lat": 22.733696}, {"name": "四海一家(益田假日广场店)", "address": "深南大道9028号华侨城威尼斯酒店旁益田假日广场3层", "avgprice": 177, "category": "自助餐", "shopid": 2340253, "score1": "7.0", "score2": "7.6", "score3": "7.1", "lng": 113.97564, "lat": 22.536827}, {"name": "瑞吉酒店-秀餐厅", "address": "深南东路5016号京基100大厦A座瑞吉酒店95楼", "avgprice": 558, "category": "自助餐", "shopid": 5509949, "score1": "7.5", "score2": "9.2", "score3": "8.3", "lng": 114.10687, "lat": 22.54303}, {"name": "君悦酒店-乐厨(君悦酒店店)", "address": "宝安南路1881号君悦酒店32楼", "avgprice": 394, "category": "自助餐", "shopid": 3570508, "score1": "8.0", "score2": "9.1", "score3": "8.8", "lng": 114.111248, "lat": 22.537043}, {"name": "深圳福田香格里拉大酒店—鲜咖啡餐厅", "address": "益田路4088号香格里拉大酒店1楼", "avgprice": 270, "category": "自助餐", "shopid": 2810071, "score1": "7.6", "score2": "8.8", "score3": "8.3", "lng": 114.057232, "lat": 22.536254}, {"name": "大中华希尔顿酒店“念”全日制自助餐厅", "address": "深南大道1003号大中华国际金融中心B座2楼大中华希尔顿酒店", "avgprice": 232, "category": "自助餐", "shopid": 21975158, "score1": "7.8", "score2": "9.0", "score3": "9.0", "lng": 114.069553, "lat": 22.539252}, {"name": "东海朗廷酒店餐厅", "address": "深南大道7888号东海朗廷酒店内", "avgprice": 257, "category": "自助餐", "shopid": 59026969, "score1": "8.2", "score2": "9.2", "score3": "9.1", "lng": 114.020364, "lat": 22.536055}, {"name": "四季酒店·馥自助餐厅", "address": "福华三路138号四季酒店六楼", "avgprice": 424, "category": "自助餐", "shopid": 13896656, "score1": "7.7", "score2": "9.1", "score3": "9.0", "lng": 114.058146, "lat": 22.532723}, {"name": "丽思卡尔顿酒店Flavorz全日制餐厅", "address": "福华三路116号星河丽思卡尔顿酒店2楼", "avgprice": 440, "category": "自助餐", "shopid": 3055138, "score1": "8.0", "score2": "9.0", "score3": "9.1", "lng": 114.061506, "lat": 22.533047}, {"name": "Fresh领鲜海鲜自助餐厅", "address": "东门鸿展中心城3楼", "avgprice": 123, "category": "自助餐", "shopid": 91955745, "score1": "7.8", "score2": "8.3", "score3": "8.2", "lng": 114.119454, "lat": 22.545706}, {"name": "中洲万豪南山尚膳自助餐", "address": "海德一道88号深圳中洲万豪酒店43F", "avgprice": 438, "category": "自助餐", "shopid": 24957053, "score1": "8.0", "score2": "9.2", "score3": "8.8", "lng": 113.93689076767998, "lat": 22.51829010462459}, {"name": "摩登克斯无国界海鲜自助餐厅", "address": "宝安南路1036号摩登克斯酒店20楼", "avgprice": 249, "category": "自助餐", "shopid": 5642035, "score1": "8.2", "score2": "8.4", "score3": "8.4", "lng": 114.112327, "lat": 22.539817}, {"name": "皇庭V酒店(VCafé全日制餐厅)", "address": "金田路2028号皇岗商务中心皇庭V酒店26楼", "avgprice": 218, "category": "自助餐", "shopid": 5560013, "score1": "7.5", "score2": "9.0", "score3": "8.2", "lng": 114.06398, "lat": 22.53112}, {"name": "温德姆至尊酒店自助餐", "address": "彩田路2009号瀚森大厦3楼", "avgprice": 200, "category": "自助餐", "shopid": 20874863, "score1": "7.8", "score2": "8.8", "score3": "8.6", "lng": 114.06765, "lat": 22.533923}, {"name": "万豪酒店西餐厅(深南大道店)", "address": "深南大道6005号金茂深圳JW万豪酒店2楼", "avgprice": 259, "category": "自助餐", "shopid": 3055099, "score1": "8.0", "score2": "9.0", "score3": "8.7", "lng": 114.032222, "lat": 22.536267}, {"name": "凯宾斯基酒店四季餐厅(后海滨路店)", "address": "后海滨路海德三道凯宾斯基酒店2楼", "avgprice": 282, "category": "自助餐", "shopid": 2909548, "score1": "7.7", "score2": "8.9", "score3": "8.6", "lng": 113.939169, "lat": 22.517962}, {"name": "香格里拉大酒店香咖啡自助餐厅", "address": "建设路1002号深圳香格里拉大酒店2层", "avgprice": 248, "category": "自助餐", "shopid": 525373, "score1": "8.0", "score2": "8.8", "score3": "8.5", "lng": 114.118329, "lat": 22.533574}, {"name": "登喜路国际大酒店", "address": "宝田一路12号登喜路国际大酒店（宝田一路与前进二路交汇处）", "avgprice": 243, "category": "自助餐", "shopid": 19574980, "score1": "8.4", "score2": "9.2", "score3": "9.1", "lng": 113.878494, "lat": 22.593879}, {"name": "平安海鲜自助餐厅", "address": "彩田北路彩德城3032号平安国际酒店6楼", "avgprice": 150, "category": "自助餐", "shopid": 24005449, "score1": "7.9", "score2": "8.5", "score3": "8.5", "lng": 114.068723, "lat": 22.543562}, {"name": "希尔顿逸林酒店開海鲜自助餐厅", "address": "东环二路8号希尔顿逸林酒店2楼自助餐厅", "avgprice": 237, "category": "自助餐", "shopid": 79582383, "score1": "7.6", "score2": "9.0", "score3": "8.7", "lng": 114.03833, "lat": 22.65627}, {"name": "深圳大中华喜来登酒店-怡聚轩全日餐厅", "address": "福华一路1号大中华国际交易广场喜来登酒店1楼", "avgprice": 207, "category": "自助餐", "shopid": 5643432, "score1": "7.3", "score2": "8.5", "score3": "8.5", "lng": 114.062096, "lat": 22.53596}, {"name": "點都德(海岸城店)", "address": "粤海街道后海大道以东天利中央商务广场305A、306、307A", "avgprice": 77, "category": "茶餐厅", "shopid": 95964156, "score1": "8.5", "score2": "8.5", "score3": "7.5", "lng": 113.93435, "lat": 22.51815}, {"name": "匠传点心", "address": "福荣路26号绿景蓝湾半岛A栋1层", "avgprice": 71, "category": "茶餐厅", "shopid": 93341556, "score1": "8.4", "score2": "9.1", "score3": "8.9", "lng": 114.0393, "lat": 22.515836}, {"name": "港丽餐厅(华强北九方购物中心店)", "address": "中航路1号九方购物中心3层301", "avgprice": 90, "category": "茶餐厅", "shopid": 24801518, "score1": "8.3", "score2": "9.1", "score3": "8.6", "lng": 114.081964, "lat": 22.543317}, {"name": "壹間茶餐厅(海岸城店)", "address": "文心五路海德三道19号海岸城西座3层", "avgprice": 57, "category": "茶餐厅", "shopid": 19367925, "score1": "7.8", "score2": "8.0", "score3": "7.4", "lng": 113.936536, "lat": 22.518214}, {"name": "庭悦餐厅(华侨城店)", "address": "华侨城兴隆街2号", "avgprice": 68, "category": "茶餐厅", "shopid": 9034750, "score1": "7.8", "score2": "8.5", "score3": "7.9", "lng": 113.98501, "lat": 22.53517}, {"name": "香港新发烧腊茶餐厅(万象店)", "address": "万象街9号铺", "avgprice": 66, "category": "茶餐厅", "shopid": 2466730, "score1": "8.7", "score2": "8.1", "score3": "8.1", "lng": 114.109921, "lat": 22.53935}, {"name": "阿飛冰室(南山店)", "address": "海德三道海岸城东座2楼246号", "avgprice": 55, "category": "茶餐厅", "shopid": 94267132, "score1": "7.9", "score2": "8.6", "score3": "8.3", "lng": 113.938002469462, "lat": 22.51791423595486}, {"name": "翠华餐厅(壹方城店)", "address": "新湖路壹方中心L2-015-016", "avgprice": 66, "category": "茶餐厅", "shopid": 97000511, "score1": "6.7", "score2": "7.2", "score3": "6.0", "lng": 113.88853981743102, "lat": 22.55188941060014}, {"name": "大有利茶餐厅(福民店)", "address": "福民路水围村316号1-2楼", "avgprice": 60, "category": "茶餐厅", "shopid": 3263353, "score1": "7.9", "score2": "7.6", "score3": "7.2", "lng": 114.063604, "lat": 22.522967}, {"name": "九龙冰室", "address": "科苑北路讯美广场3号裙楼1楼6号铺", "avgprice": 52, "category": "茶餐厅", "shopid": 92737446, "score1": "8.1", "score2": "8.4", "score3": "8.1", "lng": 113.946087, "lat": 22.545441}, {"name": "太兴餐厅(海岸城店)", "address": "文心五路33号海岸城购物中心5层", "avgprice": 81, "category": "茶餐厅", "shopid": 2376478, "score1": "7.7", "score2": "7.9", "score3": "7.4", "lng": 113.935714, "lat": 22.517038}, {"name": "绿茶餐厅(欢乐颂店)", "address": "南新路3030号欢乐颂购物中心3楼", "avgprice": 56, "category": "茶餐厅", "shopid": 37790228, "score1": "7.7", "score2": "8.1", "score3": "7.5", "lng": 113.920101, "lat": 22.534972}, {"name": "港七巷餐厅(东门天虹店)", "address": "新园路17号东门天虹1层", "avgprice": 58, "category": "茶餐厅", "shopid": 92155595, "score1": "8.4", "score2": "8.6", "score3": "8.4", "lng": 114.118451, "lat": 22.548336}, {"name": "龙记香港茶餐厅(宝安机场T3店)", "address": "宝安国际机场T3航站楼安检内国内到达区域2层213店铺", "avgprice": 69, "category": "茶餐厅", "shopid": 16799430, "score1": "7.3", "score2": "7.6", "score3": "7.3", "lng": 113.813751, "lat": 22.622858}, {"name": "TeaWood茶木(万象城店)", "address": "宝安南路1881号华润万象城一期5层566", "avgprice": 82, "category": "茶餐厅", "shopid": 18341030, "score1": "7.2", "score2": "7.9", "score3": "7.1", "lng": 114.11053670967465, "lat": 22.540449620006026}, {"name": "九龍冰室(华强北九方店)", "address": "华强北九方负一楼", "avgprice": 44, "category": "茶餐厅", "shopid": 67201162, "score1": "6.6", "score2": "6.9", "score3": "6.7", "lng": 114.082908, "lat": 22.5434}, {"name": "信哥哥茶餐厅(大冲商务中心店)", "address": "深南大道大冲商务中心A栋3楼302室", "avgprice": 51, "category": "茶餐厅", "shopid": 56794775, "score1": "8.1", "score2": "7.9", "score3": "8.2", "lng": 113.951647, "lat": 22.541032}, {"name": "香港食神车仔面(海岸城店)", "address": "海德二道中央商务广场A座一楼106号", "avgprice": 40, "category": "茶餐厅", "shopid": 69538540, "score1": "8.0", "score2": "8.0", "score3": "8.4", "lng": 113.933787, "lat": 22.518369}, {"name": "三哥茶餐厅(华强北店)", "address": "振兴路华发大厦首层7-9号铺", "avgprice": 54, "category": "茶餐厅", "shopid": 57430191, "score1": "7.8", "score2": "8.1", "score3": "7.5", "lng": 114.089621, "lat": 22.546466}, {"name": "澳門街冰室(万科天誉广场店)", "address": "龙岗中心城龙翔大道万科广场L2-22-23", "avgprice": 50, "category": "茶餐厅", "shopid": 92094396, "score1": "7.1", "score2": "8.0", "score3": "7.5", "lng": 114.243209, "lat": 22.714458}, {"name": "大秦小宴", "address": "福华三路皇庭广场L1层29号", "avgprice": 107, "category": "西北菜", "shopid": 20832481, "score1": "8.4", "score2": "9.1", "score3": "8.6", "lng": 114.060456, "lat": 22.534093}, {"name": "西贝莜面村(深圳香蜜湖店)", "address": "深南大道6068号香蜜湖度假村内", "avgprice": 101, "category": "西北菜", "shopid": 1946344, "score1": "8.5", "score2": "8.6", "score3": "8.3", "lng": 114.036453, "lat": 22.541634}, {"name": "十三羊蒙古羊排店(福中店)", "address": "福中路紫钰花园街铺52号", "avgprice": 67, "category": "西北菜", "shopid": 22305647, "score1": "8.8", "score2": "8.1", "score3": "8.0", "lng": 114.07023, "lat": 22.54497}, {"name": "印象毡房(香蜜湖店)", "address": "深南大道6068号", "avgprice": 126, "category": "西北菜", "shopid": 15116822, "score1": "8.1", "score2": "7.8", "score3": "8.0", "lng": 114.036112, "lat": 22.540817}, {"name": "老碗会·陕西手工面食大师(虹湾店)", "address": "梅林街道北环大道6098号绿景佐阾虹湾购物中心3楼L3002-1", "avgprice": 49, "category": "西北菜", "shopid": 94303462, "score1": "8.2", "score2": "8.6", "score3": "7.3", "lng": 114.04026507256043, "lat": 22.560551577334664}, {"name": "羊故事(华侨城店)", "address": "华侨城汕头街侨城路19号", "avgprice": 109, "category": "西北菜", "shopid": 21278207, "score1": "8.0", "score2": "7.9", "score3": "7.6", "lng": 113.99162, "lat": 22.537429}, {"name": "爱家味烤羊排(海岸城店)", "address": "海岸城东座一楼大厅148号", "avgprice": 63, "category": "西北菜", "shopid": 21255367, "score1": "8.7", "score2": "8.0", "score3": "8.3", "lng": 113.9382, "lat": 22.518022}, {"name": "西北领头羊清真餐厅", "address": "梅林路金丰花园108-115号清真寺旁", "avgprice": 79, "category": "西北菜", "shopid": 5295816, "score1": "8.2", "score2": "7.9", "score3": "7.7", "lng": 114.069553, "lat": 22.568311}, {"name": "羊村驿站", "address": "侨香东路1011号1979文化新天地B区3层", "avgprice": 107, "category": "西北菜", "shopid": 21561385, "score1": "8.1", "score2": "8.4", "score3": "8.3", "lng": 114.030491, "lat": 22.552186}, {"name": "高原姑娘牛肉面(深圳书城店)", "address": "金丰城一楼", "avgprice": 27, "category": "西北菜", "shopid": 92733310, "score1": "8.1", "score2": "8.0", "score3": "7.8", "lng": 114.11007969865653, "lat": 22.541231636032336}, {"name": "秦羊庄陕北铁锅炖羊肉(南山店)", "address": "南海大道海晖大厦珍宝阁二楼", "avgprice": 95, "category": "西北菜", "shopid": 21801217, "score1": "7.9", "score2": "7.8", "score3": "7.6", "lng": 113.92586, "lat": 22.50764}, {"name": "大灰狼餐吧(中心书城店)", "address": "福中一路中心书城南区1楼", "avgprice": 75, "category": "西北菜", "shopid": 2219443, "score1": "7.3", "score2": "7.7", "score3": "7.0", "lng": 114.05915, "lat": 22.54562}, {"name": "蒙古草原格格(水湾店)", "address": "太子路89号", "avgprice": 69, "category": "西北菜", "shopid": 22231125, "score1": "8.6", "score2": "7.6", "score3": "8.1", "lng": 113.918261, "lat": 22.48838}, {"name": "陕西巷子老菜馆", "address": "福华三路与金田路交汇处卓越世纪中心3,4号裙楼3楼", "avgprice": 75, "category": "西北菜", "shopid": 24759564, "score1": "7.6", "score2": "8.1", "score3": "7.9", "lng": 114.06495, "lat": 22.53226}, {"name": "那达慕蒙古风味酒楼", "address": "笋岗西路美莲大厦18栋1楼", "avgprice": 74, "category": "西北菜", "shopid": 525206, "score1": "7.9", "score2": "6.8", "score3": "6.8", "lng": 114.069618, "lat": 22.554513}, {"name": "半坡羊蒙古烤羊排(民治店)", "address": "龙华民治民丰路鑫茂公寓A112号", "avgprice": 58, "category": "西北菜", "shopid": 67006251, "score1": "7.9", "score2": "8.3", "score3": "8.1", "lng": 114.041149, "lat": 22.609349}, {"name": "九毛九山西面馆(花园城店)", "address": "南海大道1086号花园城中心南区1楼188A室铺", "avgprice": 56, "category": "西北菜", "shopid": 13792266, "score1": "7.4", "score2": "7.6", "score3": "7.2", "lng": 113.923139, "lat": 22.502346}, {"name": "老绥元烧麦(深圳南山店)", "address": "金鸡路1号田厦翡翠明珠1栋C9号", "avgprice": 71, "category": "西北菜", "shopid": 20960225, "score1": "7.9", "score2": "7.9", "score3": "7.5", "lng": 113.922696, "lat": 22.533452}, {"name": "田野牧羊人羊肉火锅(皇岗店)", "address": "金田南路皇岗文化中心", "avgprice": 0, "category": "西北菜", "shopid": 96098713, "score1": "6.5", "score2": "7.0", "score3": "6.5", "lng": 114.063713, "lat": 22.525506}, {"name": "新草原情烤全羊", "address": "玉泉路89号中山苑创业基地5栋2楼", "avgprice": 133, "category": "西北菜", "shopid": 70450895, "score1": "7.1", "score2": "7.0", "score3": "7.0", "lng": 113.924975, "lat": 22.545769}, {"name": "MR·ROCKY洛奇先生餐吧(壹方城店)", "address": "新湖路99号壹方城购物中心L1楼", "avgprice": 146, "category": "西餐", "shopid": 93666146, "score1": "8.5", "score2": "9.1", "score3": "8.3", "lng": 113.8873, "lat": 22.553299}, {"name": "NOT(壹方城店)", "address": "壹方城L1-001号铺", "avgprice": 73, "category": "西餐", "shopid": 96362418, "score1": "7.8", "score2": "9.1", "score3": "8.7", "lng": 113.886888, "lat": 22.55392}, {"name": "红厨", "address": "民田路购物公园地铁B出口扶手电梯北园2楼", "avgprice": 292, "category": "西餐", "shopid": 82879105, "score1": "8.8", "score2": "9.1", "score3": "9.1", "lng": 114.053922, "lat": 22.534972}, {"name": "HOWFUN PAELLA BAR 好饭食堂(万象天地店)", "address": "深南大道华润万象天地1层NL121号商铺", "avgprice": 141, "category": "西餐", "shopid": 93524845, "score1": "7.3", "score2": "7.7", "score3": "7.8", "lng": 113.956017, "lat": 22.541033}, {"name": "gaga chef(万象天地店)", "address": "深南大道华润万象天地NL110铺", "avgprice": 134, "category": "西餐", "shopid": 93741120, "score1": "7.3", "score2": "8.0", "score3": "7.7", "lng": 113.9568558417015, "lat": 22.54112317133388}, {"name": "Poke-doke(万象天地店)", "address": "深南大道9668号万象天地里巷NL259号商铺", "avgprice": 63, "category": "西餐", "shopid": 93557021, "score1": "8.3", "score2": "8.3", "score3": "8.6", "lng": 113.954241, "lat": 22.541009}, {"name": "叫嚎OYSTER BAR LITE(万象天地店)", "address": "深南大道9668号万象天地里巷NL116铺", "avgprice": 208, "category": "西餐", "shopid": 95348460, "score1": "8.7", "score2": "8.1", "score3": "8.5", "lng": 113.956703, "lat": 22.541814}, {"name": "I HOLIC PIZZA 艾豪丽披萨(九方购物中心店)", "address": "华强北九方购物中心顶楼L509", "avgprice": 78, "category": "比萨", "shopid": 93356268, "score1": "9.1", "score2": "9.2", "score3": "9.1", "lng": 114.08391, "lat": 22.542329}, {"name": "自然煮義Homiez", "address": "福华三路卓越intown购物中心三楼", "avgprice": 86, "category": "西餐", "shopid": 93395498, "score1": "8.9", "score2": "9.0", "score3": "9.2", "lng": 114.065122, "lat": 22.531819}, {"name": "PAULANER BRAUHAUS 德国帕拉娜自酿啤酒餐厅(海上世界店)", "address": "海上世界C区005", "avgprice": 182, "category": "西餐", "shopid": 18218666, "score1": "8.3", "score2": "9.0", "score3": "8.7", "lng": 113.91745, "lat": 22.48252}, {"name": "王品牛排(益田假日广场店)", "address": "深南大道9028号益田假日广场3F", "avgprice": 383, "category": "牛排", "shopid": 2723608, "score1": "8.5", "score2": "9.0", "score3": "9.2", "lng": 113.97517, "lat": 22.53643}, {"name": "农畉Lonfood", "address": "CocoPark外场酒吧街一楼L1C-079a铺", "avgprice": 97, "category": "西餐", "shopid": 67010220, "score1": "7.5", "score2": "8.4", "score3": "7.9", "lng": 114.054635, "lat": 22.533913}, {"name": "The 7th day 第七天(中洲店)", "address": "后海中洲控股金融中心B座二楼", "avgprice": 81, "category": "西餐", "shopid": 81001834, "score1": "7.6", "score2": "9.0", "score3": "8.3", "lng": 113.934185, "lat": 22.517691}, {"name": "西堤厚牛排(深圳中心城店)", "address": "福华一路3号中心城广场L层", "avgprice": 162, "category": "牛排", "shopid": 17974318, "score1": "7.8", "score2": "8.3", "score3": "8.2", "lng": 114.060895, "lat": 22.535774}, {"name": "star & kitchen 星享餐厅", "address": "笋岗展艺路艺展中心三期6楼空中创意园610号", "avgprice": 224, "category": "西餐", "shopid": 70811406, "score1": "8.7", "score2": "9.2", "score3": "9.0", "lng": 114.106486, "lat": 22.561615}, {"name": "Hammock汉漠客·欧式音乐餐吧", "address": "工业三路1号汇港购物中心三楼L3-16", "avgprice": 83, "category": "西式简餐", "shopid": 93196604, "score1": "8.9", "score2": "9.1", "score3": "9.1", "lng": 113.91588, "lat": 22.485531}, {"name": "FUN NOODLE BAR", "address": "侨香东路1011号1979文化新天地B区4层316B", "avgprice": 158, "category": "西餐", "shopid": 23231467, "score1": "8.2", "score2": "9.0", "score3": "8.5", "lng": 114.030341, "lat": 22.552057}, {"name": "Mon Saigon梦西贡餐吧", "address": "侨香东路1011号1979文化新天地B区B1层、1层、2层", "avgprice": 123, "category": "西餐", "shopid": 76979567, "score1": "7.7", "score2": "9.1", "score3": "7.8", "lng": 114.031168, "lat": 22.551857}, {"name": "莫宁先生", "address": "黄贝街道凤凰路3号海珑华苑裙楼HiCity第二层L2-06B铺", "avgprice": 42, "category": "西式简餐", "shopid": 95026763, "score1": "8.6", "score2": "9.1", "score3": "9.1", "lng": 114.132351, "lat": 22.546946}, {"name": "香辛厨房 Sugar & Spice", "address": "深南大道6002号人民大厦一层（近特区报社）", "avgprice": 105, "category": "西餐", "shopid": 58412472, "score1": "8.2", "score2": "8.7", "score3": "8.4", "lng": 114.04791, "lat": 22.54079}, {"name": "KOI Thé(壹方城菁选店)", "address": "新湖路99号壹方城L4层026A号商铺", "avgprice": 26, "category": "甜品饮品", "shopid": 96079841, "score1": "7.0", "score2": "7.3", "score3": "7.5", "lng": 113.887196, "lat": 22.553393}, {"name": "喜茶(万象黑金店)", "address": "宝安南路1881号华润万象城一期1层G09", "avgprice": 26, "category": "甜品饮品", "shopid": 71675877, "score1": "8.4", "score2": "8.0", "score3": "7.9", "lng": 114.11053670967465, "lat": 22.540449620006026}, {"name": "Bay house艺术甜品餐厅", "address": "宝安南路1036号万象城喜茶对面鼎丰大厦6层602", "avgprice": 136, "category": "甜品饮品", "shopid": 96063971, "score1": "8.9", "score2": "9.0", "score3": "9.0", "lng": 114.11208972843582, "lat": 22.53979654091476}, {"name": "Dreamiya(OCT店)", "address": "创意园南区F1-a2", "avgprice": 78, "category": "甜品饮品", "shopid": 96076139, "score1": "8.4", "score2": "9.1", "score3": "8.5", "lng": 113.9939, "lat": 22.53726}, {"name": "糕匠", "address": "西丽官龙路官龙综合楼C栋", "avgprice": 163, "category": "面包甜点", "shopid": 69333618, "score1": "9.1", "score2": "8.9", "score3": "9.1", "lng": 113.947396, "lat": 22.586539}, {"name": "無邪日式甜品(下沙店)", "address": "下沙村三坊72-1号1楼", "avgprice": 44, "category": "面包甜点", "shopid": 96358796, "score1": "8.5", "score2": "9.0", "score3": "8.7", "lng": 114.026977, "lat": 22.526279}, {"name": "奈雪の茶(金光华广场店)", "address": "人民南路2028号金光华广场负一层B1-066-068铺", "avgprice": 34, "category": "面包甜点", "shopid": 92823388, "score1": "7.9", "score2": "8.2", "score3": "8.0", "lng": 114.12068, "lat": 22.53982}, {"name": "牛角村(万象天地店)", "address": "深南大道9668号华润万象天地SL307号", "avgprice": 35, "category": "面包甜点", "shopid": 94262253, "score1": "7.8", "score2": "8.3", "score3": "8.3", "lng": 113.955904, "lat": 22.541018}, {"name": "卢金枝(南山茶叶城店)", "address": "南山茶叶城创业路2052-26号", "avgprice": 59, "category": "面包甜点", "shopid": 83495235, "score1": "7.7", "score2": "7.9", "score3": "7.6", "lng": 113.930935, "lat": 22.515127}, {"name": "VEONES维星(车公庙店)", "address": "车公庙丰盛町地下阳光街B区负一楼B1-029/031号", "avgprice": 22, "category": "甜品饮品", "shopid": 65744111, "score1": "8.1", "score2": "8.5", "score3": "8.5", "lng": 114.023509, "lat": 22.535264}, {"name": "813芭依珊Baesan(壹方城)", "address": "新湖路99号壹方城L1-039铺位", "avgprice": 36, "category": "甜品饮品", "shopid": 96569836, "score1": "8.5", "score2": "9.0", "score3": "8.2", "lng": 113.88971350555715, "lat": 22.5541710078341}, {"name": "BeauTea水仙(coco park店)", "address": "福华三路星河cocopark一楼B03铺", "avgprice": 38, "category": "甜品饮品", "shopid": 73619373, "score1": "8.0", "score2": "8.2", "score3": "8.0", "lng": 114.053947, "lat": 22.5335}, {"name": "爱猫猫主题猫馆", "address": "金华街13号三层", "avgprice": 63, "category": "甜品饮品", "shopid": 95242656, "score1": "7.6", "score2": "7.8", "score3": "7.8", "lng": 114.106668, "lat": 22.538288}, {"name": "TB color茶颜谷色", "address": "科苑南路口储能大厦一楼B单位及附属楼", "avgprice": 37, "category": "甜品饮品", "shopid": 95083276, "score1": "7.3", "score2": "8.2", "score3": "7.8", "lng": 113.944836, "lat": 22.537796}, {"name": "辻利TSUJIRI(万象天地店)", "address": "深南大道9668号万象天地4楼SL407号", "avgprice": 42, "category": "面包甜点", "shopid": 93637601, "score1": "7.3", "score2": "7.8", "score3": "7.4", "lng": 113.954391, "lat": 22.541107}, {"name": "壹点壹客(总部)", "address": "西丽镇官龙村第一工业区G栋2楼", "avgprice": 125, "category": "面包甜点", "shopid": 4297877, "score1": "8.6", "score2": "8.4", "score3": "8.8", "lng": 113.947999, "lat": 22.586507}, {"name": "幸福西饼生日蛋糕(车公庙店)", "address": "车公庙深南大道南侧丰盛町地下阳光街第B区C2-068号", "avgprice": 32, "category": "面包甜点", "shopid": 4530608, "score1": "8.0", "score2": "7.8", "score3": "7.6", "lng": 114.025475, "lat": 22.535285}, {"name": "伯有糖水(深圳总店)", "address": "新洲二街77号南溪新苑首层", "avgprice": 19, "category": "甜品饮品", "shopid": 96227190, "score1": "7.4", "score2": "7.7", "score3": "8.0", "lng": 114.046354, "lat": 22.522952}, {"name": "布歌东京(万象城店)", "address": "宝安南路1881号华润万象城一期B1层KB26", "avgprice": 101, "category": "面包甜点", "shopid": 18543160, "score1": "8.0", "score2": "7.9", "score3": "8.0", "lng": 114.110587, "lat": 22.539682}, {"name": "LADY 7 Café(欢乐海岸店)", "address": "白石路东37号欢乐海岸曲水湾A-7", "avgprice": 78, "category": "面包甜点", "shopid": 5620299, "score1": "7.6", "score2": "8.5", "score3": "7.5", "lng": 113.991853, "lat": 22.524279}, {"name": "姜虎东白丁烤肉(COCO Park店)", "address": "福华三路268号星河COCO Park3楼", "avgprice": 130, "category": "韩国料理", "shopid": 76740244, "score1": "8.1", "score2": "8.0", "score3": "8.3", "lng": 114.053483, "lat": 22.533787}, {"name": "魔王猪蹄(万象天地店)", "address": "深南大道9668号万象天地SL604", "avgprice": 96, "category": "韩国料理", "shopid": 95537711, "score1": "7.1", "score2": "7.6", "score3": "7.7", "lng": 113.955935, "lat": 22.541886}, {"name": "安东鸡(海岸城店)", "address": "文心六路潮流广场OKmall二楼016-018铺", "avgprice": 84, "category": "韩国料理", "shopid": 67900465, "score1": "7.8", "score2": "8.2", "score3": "8.7", "lng": 113.9383, "lat": 22.5176}, {"name": "民笑韩国料理", "address": "侨香东路1011号1979文化新天地B区3层307A", "avgprice": 140, "category": "韩国料理", "shopid": 38218068, "score1": "8.8", "score2": "9.0", "score3": "9.1", "lng": 114.029886, "lat": 22.55205}, {"name": "本家韩国料理(欢乐海岸店)", "address": "白石路东42号欢乐海岸曲水湾A-11A", "avgprice": 129, "category": "韩国料理", "shopid": 5401567, "score1": "7.8", "score2": "8.4", "score3": "7.9", "lng": 113.991734, "lat": 22.524857}, {"name": "新麻蒲韩国料理(购物公园店)", "address": "福田购物公园北园东门", "avgprice": 126, "category": "韩国料理", "shopid": 22896589, "score1": "7.9", "score2": "7.7", "score3": "8.0", "lng": 114.054598, "lat": 22.53607}, {"name": "火桶1971", "address": "农林路5号鑫竹苑B栋生活广场二楼", "avgprice": 97, "category": "韩国料理", "shopid": 22165279, "score1": "8.8", "score2": "8.1", "score3": "9.1", "lng": 114.01782, "lat": 22.537215}, {"name": "紫霞门韩国料理", "address": "深南东路2019号东乐大厦2楼", "avgprice": 109, "category": "韩国料理", "shopid": 585181, "score1": "7.7", "score2": "8.4", "score3": "7.7", "lng": 114.127183, "lat": 22.544036}, {"name": "索味厨房韩国料理(kk mall店)", "address": "京基百纳空间kkmall4楼大食代内", "avgprice": 81, "category": "韩国料理", "shopid": 70775319, "score1": "8.1", "score2": "8.5", "score3": "8.6", "lng": 114.1072, "lat": 22.54393}, {"name": "新麻蒲韩式烤肉(罗湖店)", "address": "南湖街道南湖路2017号钻石广场3楼", "avgprice": 104, "category": "韩国料理", "shopid": 69004081, "score1": "7.9", "score2": "8.2", "score3": "8.2", "lng": 114.120933, "lat": 22.538818}, {"name": "汉阳馆烤肉大师(保利店)", "address": "文心五路33号海岸城保利文化广场A区307号", "avgprice": 160, "category": "韩国料理", "shopid": 2384014, "score1": "8.1", "score2": "8.7", "score3": "8.1", "lng": 113.938768, "lat": 22.51691}, {"name": "韩太郎韩国料理", "address": "兴隆西街华侨城西部市场2楼", "avgprice": 89, "category": "韩国料理", "shopid": 69087420, "score1": "8.4", "score2": "8.6", "score3": "8.4", "lng": 113.983359, "lat": 22.536442}, {"name": "青瓦台韩式烤肉", "address": "福华一路3号怡景中心城L层FL1013号铺", "avgprice": 132, "category": "韩国料理", "shopid": 90416756, "score1": "7.8", "score2": "8.3", "score3": "8.3", "lng": 114.060307, "lat": 22.535636}, {"name": "苹果猪猪韩国料理(海岸城店)", "address": "海岸城步行街OKmall商城001号", "avgprice": 114, "category": "韩国料理", "shopid": 73623091, "score1": "7.9", "score2": "8.3", "score3": "8.8", "lng": 113.93689076767998, "lat": 22.51829010462459}, {"name": "喜来稀肉(KKMALL京基店)", "address": "深南东路5016号KKMALL京基百纳空间2层", "avgprice": 106, "category": "韩国料理", "shopid": 27232384, "score1": "7.6", "score2": "8.0", "score3": "7.6", "lng": 114.106567, "lat": 22.544399}, {"name": "金花溪韩国料理", "address": "南光路南海明珠A-106号1楼商铺", "avgprice": 57, "category": "韩国料理", "shopid": 2787562, "score1": "8.8", "score2": "8.1", "score3": "9.0", "lng": 113.92739, "lat": 22.52593}, {"name": "韩是汤饭专门店(海上世界店)", "address": "兴华路6-4号南海意库1栋105B", "avgprice": 43, "category": "韩国料理", "shopid": 93215163, "score1": "7.7", "score2": "8.0", "score3": "7.7", "lng": 113.917502, "lat": 22.485839}, {"name": "高丽参鸡汤(深南中路店)", "address": "深南中路3032号上海宾馆内", "avgprice": 76, "category": "韩国料理", "shopid": 10650570, "score1": "8.0", "score2": "7.5", "score3": "7.6", "lng": 114.082, "lat": 22.541}, {"name": "韩客莱韩国年糕料理(壹方城店)", "address": "新湖路102-75号壹方城广场B2-033", "avgprice": 63, "category": "韩国料理", "shopid": 95963379, "score1": "7.0", "score2": "7.1", "score3": "6.8", "lng": 113.889185, "lat": 22.551974}, {"name": "首味岛韩国料理(怡枫园店)", "address": "怡枫尚品C栋104号", "avgprice": 71, "category": "韩国料理", "shopid": 4132121, "score1": "7.2", "score2": "7.2", "score3": "7.1", "lng": 114.04536, "lat": 22.55316}]