[{"name": "世界之窗", "location": {"lat": 22.542145, "lng": 113.980442}, "address": "深圳市南山区深南大道9037号(欧陆风情街)", "detail": 1}, {"name": "欢乐谷", "location": {"lat": 22.548028, "lng": 113.986938}, "address": "深圳市南山区侨城西街18号", "detail": 1}, {"name": "东部华侨城", "location": {"lat": 22.623307, "lng": 114.299739}, "address": "深圳市盐田区大梅沙", "detail": 1}, {"name": "锦绣中华民俗村", "location": {"lat": 22.536914, "lng": 113.996109}, "address": "深圳市南山区深南大道9003号", "detail": 1}, {"name": "中国民俗文化村", "location": {"lat": 22.537131, "lng": 113.995003}, "address": "深南大道9003号中国民俗文化村", "detail": 1}, {"name": "深圳野生动物园", "location": {"lat": 22.604655, "lng": 113.978411}, "address": "深圳市南山区西丽湖路4065号", "detail": 1}, {"name": "观澜湖", "location": {"lat": 22.740738, "lng": 114.082038}, "address": "广东省深圳市龙华区高尔夫大道", "detail": 1}, {"name": "海上田园", "location": {"lat": 22.733244, "lng": 113.78055}, "address": "深圳市宝安区沙井镇民主大道", "detail": 1}, {"name": "青青世界", "location": {"lat": 22.506465, "lng": 113.907217}, "address": "广东省深圳市南山区月亮湾青青路1号", "detail": 1}, {"name": "大梅沙海滩", "location": {"lat": 22.598816, "lng": 114.315719}, "address": "广东省深圳市盐田区大梅沙海滨公园", "detail": 1}, {"name": "深圳湾公园(望海路)", "location": {"lat": 22.492252, "lng": 113.955133}, "address": "广东省深圳市南山区滨海大道", "detail": 1}, {"name": "海上世界", "location": {"lat": 22.489193, "lng": 113.922457}, "address": "深圳市南山区蛇口望海路1128号", "detail": 1}, {"name": "海滨生态公园", "location": {"lat": 22.528619, "lng": 114.005208}, "address": "广东省深圳市南山区滨海大遂2号人行通道", "detail": 1}, {"name": "中英街", "location": {"lat": 22.547944, "lng": 114.237206}, "address": "香港北区沙头角镇中英街内", "detail": 1}, {"name": "大鹏所城", "location": {"lat": 22.599508, "lng": 114.521316}, "address": "南门东路", "detail": 1}, {"name": "大梅沙海滨公园", "location": {"lat": 22.598452, "lng": 114.313766}, "address": "深圳市盐田区盐葵路大梅沙段148号", "detail": 1}, {"name": "香蜜公园", "location": {"lat": 22.549457, "lng": 114.029613}, "address": "深圳市福田区农园路30号", "detail": 1}, {"name": "莲花山公园", "location": {"lat": 22.559257, "lng": 114.065193}, "address": "广东省深圳市福田区红荔路6030号", "detail": 1}, {"name": "宝安西湾红树林公园", "location": {"lat": 22.5925, "lng": 113.8441}, "address": "广东省深圳市宝安区金湾大道旁", "detail": 1}, {"name": "马峦山郊野公园", "location": {"lat": 22.665661, "lng": 114.353392}, "address": "广东省深圳市坪山区", "detail": 1}, {"name": "华侨城创意文化园", "location": {"lat": 22.542889, "lng": 114.000489}, "address": "深圳市南山区锦绣北街2号", "detail": 1}, {"name": "园博园", "location": {"lat": 22.544162, "lng": 114.010238}, "address": "广东省深圳市福田区深南大道8002号", "detail": 1}, {"name": "南山公园", "location": {"lat": 22.500143, "lng": 113.912003}, "address": "别墅路8号", "detail": 1}, {"name": "深圳博物馆(福中路)", "location": {"lat": 22.54928, "lng": 114.06827}, "address": "广东省深圳市福田区福中路市民中心A区", "detail": 1}, {"name": "欢乐海岸海洋奇梦馆", "location": {"lat": 22.531722, "lng": 113.994681}, "address": "广东省深圳市南山区白石路东8号欢乐海岸购物中心二楼", "detail": 1}, {"name": "深圳会展中心", "location": {"lat": 22.536516, "lng": 114.066337}, "address": "深圳市福田区福华三路", "detail": 1}, {"name": "龙园", "location": {"lat": 22.738938, "lng": 114.272141}, "address": "龙园路416号", "detail": 1}, {"name": "南头古城垣", "location": {"lat": 22.548717, "lng": 113.927721}, "address": "南山区南山大道3109号中山公园南侧(近深南大道北侧)", "detail": 1}, {"name": "求水山公园", "location": {"lat": 22.604718, "lng": 114.150092}, "address": "深圳市龙岗区南湾街道南岭村(近南岭花园)", "detail": 1}, {"name": "茶溪谷", "location": {"lat": 22.638202, "lng": 114.286962}, "address": "深圳市盐田区大梅沙东部华侨城", "detail": 1}, {"name": "中山公园", "location": {"lat": 22.553583, "lng": 113.925318}, "address": "深圳市南山区南山大道3109号(近汇泉广场)", "detail": 1}, {"name": "大鹏半岛国家地质公园", "location": {"lat": 22.534619, "lng": 114.53759}, "address": "深圳市大鹏新区南澳地质公园路1号", "detail": 1}, {"name": "大侠谷", "location": {"lat": 22.615149, "lng": 114.310256}, "address": "深圳市盐田区大梅沙东部华侨城", "detail": 1}, {"name": "红花山公园", "location": {"lat": 22.787145, "lng": 113.906971}, "address": "广东省深圳市宝安区振明路88号", "detail": 1}, {"name": "地王观光", "location": {"lat": 22.548792, "lng": 114.116516}, "address": "深圳市罗湖区深南东路5002号信兴广场商业中心地王大厦第69层", "detail": 1}, {"name": "聚龙山生态公园", "location": {"lat": 22.73403, "lng": 114.397789}, "address": "广东省深圳市坪山区区坪山新区坑梓街道聚龙山生态公园", "detail": 1}, {"name": "园山风景区", "location": {"lat": 22.645088, "lng": 114.248066}, "address": "深圳市龙岗区园山路101号", "detail": 1}, {"name": "九龙山花仙谷", "location": {"lat": 22.719515, "lng": 114.011927}, "address": "深圳市龙华新区观澜悦兴路九龙山高尔夫球会旁", "detail": 1}, {"name": "龙华公园", "location": {"lat": 22.663545, "lng": 114.023326}, "address": "人民路4279号", "detail": 1}, {"name": "关山月美术馆", "location": {"lat": 22.555068, "lng": 114.070788}, "address": "广东省深圳市福田区红荔路6020号", "detail": 1}, {"name": "笔架山公园", "location": {"lat": 22.568933, "lng": 114.087444}, "address": "深圳市福田区梅岗路12号", "detail": 1}, {"name": "金沙湾旅游区", "location": {"lat": 22.575434, "lng": 114.466406}, "address": "深圳市大鹏新区大鹏镇金沙大道", "detail": 1}, {"name": "儿童乐园", "location": {"lat": 22.549128, "lng": 114.017359}, "address": "广东省深圳市福田区农林路71号", "detail": 1}, {"name": "深圳儿童公园", "location": {"lat": 22.559985, "lng": 114.130489}, "address": "深圳市罗湖区东门中路2269号", "detail": 1}, {"name": "大梅沙海滨栈道", "location": {"lat": 22.587525, "lng": 114.312317}, "address": "西起盐田东港区，东至大梅沙海滨公园", "detail": 1}, {"name": "宝安公园", "location": {"lat": 22.592267, "lng": 113.909263}, "address": "公园路", "detail": 1}, {"name": "观澜山水田园旅游文化园", "location": {"lat": 22.723317, "lng": 114.11225}, "address": "观澜镇君子布村环观南路老围工业区6", "detail": 1}, {"name": "荔香公园", "location": {"lat": 22.542536, "lng": 113.936018}, "address": "南光路145-8对面", "detail": 1}, {"name": "弘法寺", "location": {"lat": 22.583463, "lng": 114.188148}, "address": "深圳市罗湖区莲塘仙湖路160号仙湖植物园内", "detail": 1}, {"name": "大华兴寺", "location": {"lat": 22.630513, "lng": 114.293804}, "address": "深圳市盐田区大梅沙东部华侨城", "detail": 1}, {"name": "小平同志塑像", "location": {"lat": 22.558897, "lng": 114.066031}, "address": "深圳市福田区红荔路6030号(儿童医院对面)莲花山公园内", "detail": 1}, {"name": "海边观光", "location": {"lat": 22.528375, "lng": 114.008874}, "address": "深圳市南山区滨海大道深圳湾公园海滨生态公园内", "detail": 1}, {"name": "龙潭公园", "location": {"lat": 22.72946, "lng": 114.248915}, "address": "长兴南路31号", "detail": 1}, {"name": "龙城公园", "location": {"lat": 22.719074, "lng": 114.232782}, "address": "深圳市龙岗区清林路与爱心路交界处", "detail": 1}, {"name": "大王山", "location": {"lat": 22.718762, "lng": 113.813201}, "address": "沙井街道南环路", "detail": 1}, {"name": "甘坑客家古镇", "location": {"lat": 22.660756, "lng": 114.112061}, "address": "广东省深圳市龙岗区布吉新区甘坑客家小镇", "detail": 1}, {"name": "深圳科学馆", "location": {"lat": 22.548423, "lng": 114.102259}, "address": "深圳市福田区上步中路1003号", "detail": 1}, {"name": "南山公园-海关登山口", "location": {"lat": 22.503284, "lng": 113.924183}, "address": "南山区沿山路8号", "detail": 1}, {"name": "深圳观澜生态水上乐园", "location": {"lat": 22.723648, "lng": 114.112175}, "address": "龙华新区观澜镇君子布环观南路山水田园农庄（公交站山水田园农庄）", "detail": 1}, {"name": "沙井公园", "location": {"lat": 22.742549, "lng": 113.825451}, "address": "将军路与教育北路交叉口东200米", "detail": 1}, {"name": "观音山公园", "location": {"lat": 22.594136, "lng": 114.465736}, "address": "广东省深圳市龙岗区王母立交桥西南角", "detail": 1}, {"name": "八仙岭", "location": {"lat": 22.722038, "lng": 114.284191}, "address": "碧新路与南通路交汇处(东北侧约1400米)", "detail": 1}, {"name": "茵特拉根小镇", "location": {"lat": 22.63791, "lng": 114.284015}, "address": "深圳市盐田区大梅沙东部华侨城内", "detail": 1}, {"name": "东山寺", "location": {"lat": 22.601777, "lng": 114.526329}, "address": "深圳市龙岗区鹏飞路278号", "detail": 1}, {"name": "坪山公园", "location": {"lat": 22.694796, "lng": 114.350733}, "address": "深圳市坪山区坪山汽车总站斜对面", "detail": 1}, {"name": "观澜人民公园", "location": {"lat": 22.722156, "lng": 114.051409}, "address": "深圳市龙华区人民公园路4", "detail": 1}, {"name": "海景栈道", "location": {"lat": 22.558857, "lng": 114.248394}, "address": "深圳市盐田区海景路10号附近", "detail": 1}, {"name": "女娲补天雕像", "location": {"lat": 22.486576, "lng": 113.92415}, "address": "深圳市南山区海上世界望海路37路总站直入300米", "detail": 1}, {"name": "小梅沙沙滩", "location": {"lat": 22.606914, "lng": 114.334605}, "address": "深圳市盐田区小梅沙盐葵路", "detail": 1}, {"name": "蛇口邮轮中心", "location": {"lat": 22.47593, "lng": 113.920043}, "address": "广东省深圳市南山区", "detail": 1}, {"name": "四海公园", "location": {"lat": 22.501628, "lng": 113.933354}, "address": "深圳市南山区公园路6号", "detail": 1}, {"name": "塘朗山公园", "location": {"lat": 22.582343, "lng": 114.017939}, "address": "广东省深圳市南山区北环路(近龙珠大道)", "detail": 1}, {"name": "平峦山公园", "location": {"lat": 22.614543, "lng": 113.88299}, "address": "前进二路与宝田三路交叉口(桃源居)", "detail": 1}, {"name": "大梧桐", "location": {"lat": 22.585069, "lng": 114.231268}, "address": "深圳市盐田区望桐路梧桐山内", "detail": 1}, {"name": "龙王古庙", "location": {"lat": 22.676529, "lng": 113.847082}, "address": "福永大道", "detail": 1}, {"name": "仙人掌沙滩", "location": {"lat": 22.480934, "lng": 114.54329}, "address": "深圳市龙岗区西涌2号收费口仙人掌沙滩中心", "detail": 1}, {"name": "赤湾左炮台", "location": {"lat": 22.474585, "lng": 113.89769}, "address": "深圳市南山区蛇口赤湾左炮台路", "detail": 1}, {"name": "松岗公园", "location": {"lat": 22.791128, "lng": 113.855108}, "address": "松岗麒麟山(近松岗人民医院)", "detail": 1}, {"name": "玫瑰小镇", "location": {"lat": 22.592976, "lng": 114.487931}, "address": "广东省深圳市龙岗区大鹏街道布新路10号", "detail": 1}, {"name": "坝光海滩", "location": {"lat": 22.651108, "lng": 114.509931}, "address": "深圳市龙岗区葵涌镇坝光村东", "detail": 1}, {"name": "中英街界碑", "location": {"lat": 22.551149, "lng": 114.238049}, "address": "广东省香港北区沙深路中英街第一商场", "detail": 1}, {"name": "布吉公园", "location": {"lat": 22.610589, "lng": 114.124839}, "address": "深圳市龙岗区金龙路21", "detail": 1}, {"name": "五马峰", "location": {"lat": 22.757216, "lng": 114.415859}, "address": "深圳市坪山区名人居工业园对面", "detail": 1}, {"name": "黄金山公园", "location": {"lat": 22.644494, "lng": 114.071351}, "address": "中海日辉台对面", "detail": 1}, {"name": "深圳博物馆", "location": {"lat": 22.548178, "lng": 114.107052}, "address": "深圳市福田区", "detail": 1}, {"name": "艺展中心", "location": {"lat": 22.567135, "lng": 114.11261}, "address": "深圳市罗湖区梨园路121号", "detail": 1}, {"name": "天后宫", "location": {"lat": 22.484396, "lng": 113.898904}, "address": "广东省深圳市南山区", "detail": 1}, {"name": "洪湖公园(文锦北路)", "location": {"lat": 22.571781, "lng": 114.126227}, "address": "罗湖区文锦北路2023号", "detail": 1}, {"name": "小南山公园", "location": {"lat": 22.491318, "lng": 113.891051}, "address": "深圳市南山区前海路与棉山路交汇处", "detail": 1}, {"name": "沙井老街公园", "location": {"lat": 22.741955, "lng": 113.813401}, "address": "广东省深圳市宝安区沙井大街188号", "detail": 1}, {"name": "塘朗山公园-龙珠门", "location": {"lat": 22.57019, "lng": 113.988678}, "address": "广东省深圳市南山区龙珠六路51", "detail": 1}, {"name": "铁仔山公园", "location": {"lat": 22.59846, "lng": 113.86997}, "address": "深圳市宝安区西城工业城内", "detail": 1}, {"name": "东涌旅游区", "location": {"lat": 22.497086, "lng": 114.588686}, "address": "东涌路与冲街交叉口西北200米", "detail": 1}, {"name": "宝立方中心", "location": {"lat": 22.586105, "lng": 113.898387}, "address": "深圳市宝安区新安四路198号", "detail": 1}, {"name": "北湾鹭港", "location": {"lat": 22.524843, "lng": 113.969688}, "address": "广东省深圳市南山区北湾鹭港(滨海大道南110米)", "detail": 1}, {"name": "深圳国际低碳城", "location": {"lat": 22.784673, "lng": 114.299536}, "address": "深圳市龙岗区龙腾路", "detail": 1}, {"name": "深圳麦鲁小城", "location": {"lat": 22.532353, "lng": 113.997229}, "address": "深圳市南山区白石路欢乐海岸购物中心2层", "detail": 1}, {"name": "坪山新区大万世居", "location": {"lat": 22.687409, "lng": 114.349258}, "address": "坪山街道大万路33号坪坏社区西南的客家村", "detail": 1}, {"name": "马尔代夫沙滩", "location": {"lat": 22.54365, "lng": 114.492768}, "address": "深圳市龙岗区海滨南路21-13号", "detail": 1}, {"name": "大沙河公园", "location": {"lat": 22.56294, "lng": 113.967525}, "address": "沙河东路北环大道8228号", "detail": 1}, {"name": "海滨公园", "location": {"lat": 22.593482, "lng": 113.852199}, "address": "塘东东一巷", "detail": 1}, {"name": "椰林沙滩", "location": {"lat": 22.527799, "lng": 113.994872}, "address": "深圳市南山区白石路8号欢乐海岸内", "detail": 1}, {"name": "弘源寺", "location": {"lat": 22.708235, "lng": 113.908077}, "address": "星湖路85号", "detail": 1}, {"name": "凤岩古庙", "location": {"lat": 22.681828, "lng": 113.859992}, "address": "深圳市宝安区福永街道凤凰村凤凰山森林公园内", "detail": 1}, {"name": "凤凰山国家矿山公园", "location": {"lat": 22.707593, "lng": 114.14402}, "address": "深圳市龙岗区平湖镇双拥街186号斜对面", "detail": 1}, {"name": "明湖城市公园", "location": {"lat": 22.742457, "lng": 113.901907}, "address": "光明新区公明办事处塘尾社区,南邻塘明路", "detail": 1}, {"name": "观澜湖生态体育公园", "location": {"lat": 22.726926, "lng": 114.085414}, "address": "观澜高尔夫大道1号", "detail": 1}, {"name": "月亮湾公园", "location": {"lat": 22.506883, "lng": 113.905339}, "address": "深圳市南山区前海路0333号阳光玫瑰园对面", "detail": 1}, {"name": "荔林公园(沿湖路)", "location": {"lat": 22.51357, "lng": 113.917575}, "address": "沿湖路45号山海翠庐花园旁边", "detail": 1}, {"name": "银湖国际会议中心", "location": {"lat": 22.588067, "lng": 114.08275}, "address": "银湖路38号", "detail": 1}, {"name": "龙岗区大运公园", "location": {"lat": 22.691806, "lng": 114.209942}, "address": "深圳市龙岗区龙翔大道大运中心西侧", "detail": 1}, {"name": "望牛亭", "location": {"lat": 22.679235, "lng": 113.822901}, "address": "深圳市宝安区交警大队福永中队附近", "detail": 1}, {"name": "大芬美术馆", "location": {"lat": 22.616123, "lng": 114.145005}, "address": "布吉镇大芬油画村老围东二巷3号7层", "detail": 1}, {"name": "深圳美术馆", "location": {"lat": 22.577209, "lng": 114.153902}, "address": "爱国路东湖一街32号", "detail": 1}, {"name": "深圳当代艺术馆", "location": {"lat": 22.551422, "lng": 114.06849}, "address": "深圳市福田区福中路184号", "detail": 1}, {"name": "宝安科技馆", "location": {"lat": 22.564494, "lng": 113.917902}, "address": "宝城4区龙井二路95号", "detail": 1}, {"name": "观澜古寺", "location": {"lat": 22.725461, "lng": 114.060199}, "address": "深圳市龙华区沿河路", "detail": 1}, {"name": "深圳凤山寺", "location": {"lat": 22.744514, "lng": 114.326874}, "address": "广东省深圳市龙岗区吓坑二路50", "detail": 1}, {"name": "何香凝美术馆", "location": {"lat": 22.539316, "lng": 113.988083}, "address": "深南大道9013", "detail": 1}, {"name": "深圳市梧桐山风景区管理处梧桐山村管理站", "location": {"lat": 22.595782, "lng": 114.202314}, "address": "深圳市罗湖区茂仔村137号", "detail": 1}, {"name": "梅林公园", "location": {"lat": 22.576223, "lng": 114.046156}, "address": "广东省深圳市福田区梅亭路14号", "detail": 1}, {"name": "大甲岛", "location": {"lat": 22.548807, "lng": 114.577621}, "address": "深圳市龙岗区南澳杨梅坑228号", "detail": 1}, {"name": "人民公园(人民北路)", "location": {"lat": 22.559683, "lng": 114.123593}, "address": "深圳市罗湖区人民北路3071号人民公园管理处", "detail": 1}, {"name": "深圳市工人文化宫-游乐场", "location": {"lat": 22.552707, "lng": 114.123157}, "address": "深圳市罗湖区新园路5号", "detail": 1}, {"name": "松坪山公园", "location": {"lat": 22.564164, "lng": 113.953899}, "address": "乌石头路9号", "detail": 1}, {"name": "坪地公园", "location": {"lat": 22.781748, "lng": 114.313717}, "address": "振兴路附近", "detail": 1}, {"name": "灵芝公园", "location": {"lat": 22.575571, "lng": 113.914053}, "address": "前进一路80号", "detail": 1}, {"name": "民治公园", "location": {"lat": 22.625151, "lng": 114.041845}, "address": "广东省深圳市龙华区龙华新区民治街道民旺路88号", "detail": 1}, {"name": "趣味植物园", "location": {"lat": 22.733142, "lng": 113.776312}, "address": "广东省深圳市宝安区和二一路32号", "detail": 1}, {"name": "宋少帝陵", "location": {"lat": 22.486394, "lng": 113.892963}, "address": "少帝路13号", "detail": 1}, {"name": "溪谷生态园", "location": {"lat": 22.645272, "lng": 114.248628}, "address": "广东省深圳市龙岗区横岗园山风景区", "detail": 1}, {"name": "龙胜公园", "location": {"lat": 22.656757, "lng": 114.020232}, "address": "深圳市龙华区龙胜新村a区67栋303室", "detail": 1}, {"name": "深圳会堂", "location": {"lat": 22.54975, "lng": 114.103527}, "address": "上步中路5号(总工会大厦对面)", "detail": 1}, {"name": "碧海湾公园", "location": {"lat": 22.590447, "lng": 113.858452}, "address": "广东省深圳市宝安区新湾路317", "detail": 1}, {"name": "世界海上", "location": {"lat": 22.489042, "lng": 113.923216}, "address": "太子路", "detail": 1}, {"name": "石鼓山公园", "location": {"lat": 22.584067, "lng": 113.956959}, "address": "深圳市南山区石鼓路2012石景湾花园附近", "detail": 1}, {"name": "深圳湾公园C区-运动公园", "location": {"lat": 22.491879, "lng": 113.95361}, "address": "深圳湾公园C区-运动公园内", "detail": 1}, {"name": "福田区体育公园", "location": {"lat": 22.53185, "lng": 114.042413}, "address": "深圳市福田区福强路3030号", "detail": 1}, {"name": "凤凰塔", "location": {"lat": 22.696887, "lng": 113.84318}, "address": "广东省深圳市宝安区凤凰山大道198号", "detail": 1}, {"name": "围岭", "location": {"lat": 22.589951, "lng": 114.133772}, "address": "广东省深圳市罗湖区金稻田路1603号", "detail": 1}, {"name": "般若禅寺", "location": {"lat": 22.60809, "lng": 114.070973}, "address": "南坪快速附近", "detail": 1}, {"name": "深圳市天文台", "location": {"lat": 22.483278, "lng": 114.568481}, "address": "西涌社区西涌海滩4号入口", "detail": 1}, {"name": "观澜新斜山社区公园", "location": {"lat": 22.729345, "lng": 114.019271}, "address": "广东省深圳市龙华区大塘路观澜新斜山社区公园", "detail": 1}, {"name": "布吉文博宫1号馆", "location": {"lat": 22.611144, "lng": 114.110248}, "address": "深圳市布吉街道西环路88号文博宫", "detail": 1}, {"name": "光明滑草场乐园", "location": {"lat": 22.760057, "lng": 113.969738}, "address": "广东省深圳市宝安区光明滑草游乐园(光明高尔夫球会附近)", "detail": 1}, {"name": "清湖文化公园", "location": {"lat": 22.675885, "lng": 114.057779}, "address": "雪岗北路附近", "detail": 1}, {"name": "黄田公园", "location": {"lat": 22.635669, "lng": 113.848087}, "address": "深圳市宝安区西乡街道黄田社区居民委员会对面", "detail": 1}, {"name": "溪涌湾海边度假村", "location": {"lat": 22.617253, "lng": 114.410903}, "address": "广东省深圳市龙岗区大鹏湾畔", "detail": 1}, {"name": "梦幻地带游乐园", "location": {"lat": 22.628724, "lng": 114.046403}, "address": "广东省深圳市龙华区龙华新区民治大道328号嘉熙业广场4楼", "detail": 1}, {"name": "燕子岭公园", "location": {"lat": 22.704109, "lng": 114.364619}, "address": "深圳市坪山区金牛西路与4号路交叉口", "detail": 1}, {"name": "三洲田村落遗址", "location": {"lat": 22.644764, "lng": 114.283304}, "address": "深圳市盐田区碧三路", "detail": 1}, {"name": "西冲海滨旅游度假区", "location": {"lat": 22.481558, "lng": 114.539052}, "address": "大鹏半岛南澳西冲度假村", "detail": 1}, {"name": "龟山", "location": {"lat": 22.781806, "lng": 113.88133}, "address": "广东省深圳市宝安区公明镇茨田埔村", "detail": 1}, {"name": "银湖山郊野公园", "location": {"lat": 22.595581, "lng": 114.067936}, "address": "深圳市龙华区彩田北路星河丹堤小区", "detail": 1}, {"name": "皇岗公园", "location": {"lat": 22.523287, "lng": 114.064619}, "address": "福田区益田路2002号", "detail": 1}, {"name": "翠岗公园", "location": {"lat": 22.670518, "lng": 113.828868}, "address": "翠岗西路52号", "detail": 1}, {"name": "大顶岭山林公园", "location": {"lat": 22.762093, "lng": 113.970118}, "address": "光明新区光明农场内", "detail": 1}, {"name": "西乡公园", "location": {"lat": 22.583447, "lng": 113.88757}, "address": "富成路160号", "detail": 1}, {"name": "海山公园(深盐路)", "location": {"lat": 22.565955, "lng": 114.246814}, "address": "深圳市盐田区深盐路2100号", "detail": 1}, {"name": "新安公园", "location": {"lat": 22.569476, "lng": 113.918492}, "address": "深圳市宝安区新安街道17区", "detail": 1}, {"name": "深圳市野生动物园水族馆", "location": {"lat": 22.604928, "lng": 113.978491}, "address": "深圳市南山区西丽镇西丽路4065号深圳野生动物园内", "detail": 1}, {"name": "南昌公园", "location": {"lat": 22.602014, "lng": 113.847688}, "address": "深圳市宝安区佳盛百货车站附近", "detail": 1}, {"name": "文天祥纪念公园", "location": {"lat": 22.483119, "lng": 113.909324}, "address": "深圳市南山区", "detail": 1}, {"name": "三联公园", "location": {"lat": 22.670432, "lng": 114.025201}, "address": "龙华新区大浪南路(近龙观路)", "detail": 1}, {"name": "西丽湖", "location": {"lat": 22.604095, "lng": 113.976126}, "address": "广东省深圳市南山区丽山路16-5", "detail": 1}, {"name": "光明新城公园", "location": {"lat": 22.752777, "lng": 113.946431}, "address": "广东省深圳市宝安区光明新区光明办事处公园路", "detail": 1}, {"name": "坪山湿地公园", "location": {"lat": 22.715269, "lng": 114.413381}, "address": "深圳市坪山区金牛东路茜坑路段", "detail": 1}, {"name": "福特公园", "location": {"lat": 22.679126, "lng": 114.043898}, "address": "广东省深圳市龙华区祥利路30号", "detail": 1}, {"name": "大鹿港", "location": {"lat": 22.5375, "lng": 114.499104}, "address": "广东省深圳市龙岗区富民路120号", "detail": 1}, {"name": "天主堂(留仙一路)", "location": {"lat": 22.590272, "lng": 113.917625}, "address": "上川路469号", "detail": 1}, {"name": "塘朗山顶峰", "location": {"lat": 22.579608, "lng": 113.992623}, "address": "深圳市南山区", "detail": 1}, {"name": "东涌海洋生物馆", "location": {"lat": 22.496219, "lng": 114.588031}, "address": "深圳市龙岗区东涌旅游区内", "detail": 1}, {"name": "西乡会堂", "location": {"lat": 22.587852, "lng": 113.889556}, "address": "宝民二路112", "detail": 1}, {"name": "佛山祖庙(广东)", "location": {"lat": 22.535608, "lng": 113.998718}, "address": "深圳市南山区深南大道9003号锦绣中华内", "detail": 1}, {"name": "南山妈祖庙", "location": {"lat": 22.496599, "lng": 113.891089}, "address": "月亮湾棉山路香格名苑小区后面", "detail": 1}, {"name": "oct创意展示中心", "location": {"lat": 22.532018, "lng": 113.998471}, "address": "深圳市南山区白石路8号", "detail": 1}, {"name": "流塘公园", "location": {"lat": 22.589233, "lng": 113.898361}, "address": "深圳市宝安区前进二路正集源大厦旁边", "detail": 1}, {"name": "思月书院", "location": {"lat": 22.552713, "lng": 114.12616}, "address": "广东省深圳市罗湖区人民路二横街79", "detail": 1}, {"name": "华侨城湿地公园", "location": {"lat": 22.534644, "lng": 113.999264}, "address": "白石路8号", "detail": 1}, {"name": "侏罗纪恐龙世界", "location": {"lat": 22.541185, "lng": 113.977551}, "address": "深圳市南山区深南大道9037号世界之窗内", "detail": 1}, {"name": "万景楼", "location": {"lat": 22.730915, "lng": 113.835232}, "address": "中心路19号", "detail": 1}, {"name": "东江纵队纪念馆", "location": {"lat": 22.693124, "lng": 114.359332}, "address": "坪山新区坪山街道东纵路230-1号", "detail": 1}, {"name": "观澜老街公园", "location": {"lat": 22.721802, "lng": 114.060522}, "address": "深圳市龙华区新澜大街40", "detail": 1}, {"name": "南头古城博物馆", "location": {"lat": 22.546682, "lng": 113.926577}, "address": "广东省深圳市南山区深南大道12036", "detail": 1}, {"name": "前海花卉公园", "location": {"lat": 22.551483, "lng": 113.918528}, "address": "深圳市南山区荷兰花卉小镇旁", "detail": 1}, {"name": "下村公园", "location": {"lat": 22.797605, "lng": 113.891187}, "address": "广东省深圳市宝安区水贝路128", "detail": 1}, {"name": "深圳市基督教深圳堂", "location": {"lat": 22.574012, "lng": 114.053424}, "address": "梅林路126", "detail": 1}, {"name": "玛雅水公园", "location": {"lat": 22.547985, "lng": 113.985987}, "address": "深圳市南山区侨城西街1号欢乐谷玛雅水公园内", "detail": 1}, {"name": "梧桐山好汉坡广场", "location": {"lat": 22.595761, "lng": 114.202336}, "address": "广东省深圳市罗湖区", "detail": 1}, {"name": "茶翁古镇", "location": {"lat": 22.640904, "lng": 114.279462}, "address": "深圳市盐田区大梅沙东部华侨城", "detail": 1}, {"name": "仙桐体育公园-攀岩区", "location": {"lat": 22.574712, "lng": 114.187102}, "address": "罗湖区莲塘长岭仙桐路(仙桐体育公园)", "detail": 1}, {"name": "深圳欢乐谷夜场", "location": {"lat": 22.545726, "lng": 113.987014}, "address": "南山区华侨城西路侨城西街欢乐谷入口", "detail": 1}, {"name": "观澜美术馆", "location": {"lat": 22.703993, "lng": 114.054294}, "address": "深圳市龙华区广场沿河路10", "detail": 1}, {"name": "荔枝世界", "location": {"lat": 22.613429, "lng": 113.950158}, "address": "广东省深圳市南山区沙河西路5080号", "detail": 1}, {"name": "翠竹公园", "location": {"lat": 22.570007, "lng": 114.140833}, "address": "深圳市罗湖区翠竹路1078号", "detail": 1}, {"name": "广东梧桐山国家森林公园", "location": {"lat": 22.567182, "lng": 114.241844}, "address": "沙头角梧桐路2002号", "detail": 1}, {"name": "水上乐园", "location": {"lat": 22.604681, "lng": 114.149251}, "address": "龙岗区求水山公园内", "detail": 1}, {"name": "横岗镇人民公园", "location": {"lat": 22.652708, "lng": 114.215751}, "address": "龙岗大道横岗段5014号", "detail": 1}, {"name": "青瑞童话花园", "location": {"lat": 22.782347, "lng": 113.968085}, "address": "广东省深圳市宝安区果园中心路38号", "detail": 1}, {"name": "深圳会展中心-1展馆", "location": {"lat": 22.535874, "lng": 114.066375}, "address": "福华三路会展中心", "detail": 1}, {"name": "深圳古生物博物馆", "location": {"lat": 22.590106, "lng": 114.184089}, "address": "深圳市罗湖区莲塘仙湖路160号仙湖植物园内", "detail": 1}, {"name": "葵涌公园", "location": {"lat": 22.634596, "lng": 114.434873}, "address": "深圳市龙岗区金业路98号葵星工业城旁边", "detail": 1}, {"name": "石岩湿地公园", "location": {"lat": 22.688536, "lng": 113.929667}, "address": "广东省深圳市宝安区X253(松白路)", "detail": 1}, {"name": "中国崖柏艺术博物馆", "location": {"lat": 22.695267, "lng": 113.842422}, "address": "凤凰大道118号凤凰艺展中心一楼", "detail": 1}, {"name": "4D奇幻世界", "location": {"lat": 22.606796, "lng": 114.152378}, "address": "广东省深圳市龙岗区南岭街道南园路2号求水山公园民俗客家园二楼", "detail": 1}, {"name": "燕岭公园", "location": {"lat": 22.81471, "lng": 113.867867}, "address": "深圳市宝安区红湖路92斜对面", "detail": 1}, {"name": "下雪社区公园", "location": {"lat": 22.659191, "lng": 114.090607}, "address": "后山东五巷附近", "detail": 1}, {"name": "铁坑水库", "location": {"lat": 22.820955, "lng": 113.918662}, "address": "公明街道西田村", "detail": 1}, {"name": "坪山区中心公园", "location": {"lat": 22.713736, "lng": 114.353978}, "address": "广东省深圳市坪山区", "detail": 1}, {"name": "坑梓公园", "location": {"lat": 22.741103, "lng": 114.383843}, "address": "深圳市坪山区吉康路与梓兴路交界处", "detail": 1}, {"name": "罗租岭公园", "location": {"lat": 22.681548, "lng": 113.942839}, "address": "如意路167号", "detail": 1}, {"name": "凤凰社区古建筑群", "location": {"lat": 22.695847, "lng": 113.845968}, "address": "凤凰社区", "detail": 1}, {"name": "东湖公园游乐场", "location": {"lat": 22.576758, "lng": 114.153502}, "address": "东湖二街32深圳美术馆附近", "detail": 1}, {"name": "观海湾大沙滩", "location": {"lat": 22.606753, "lng": 114.435157}, "address": "广东省深圳市龙岗区葵涌街道官湖社区葵鹏路观海湾大沙滩", "detail": 1}, {"name": "台地公园", "location": {"lat": 22.704966, "lng": 114.251077}, "address": "南通道8号附近", "detail": 1}, {"name": "沙井中心公园", "location": {"lat": 22.735105, "lng": 113.837974}, "address": "深圳市宝安区新沙路164号", "detail": 1}, {"name": "美国自由女神像", "location": {"lat": 22.541369, "lng": 113.976385}, "address": "深圳市南山区深南大道9037号世界之窗内", "detail": 1}, {"name": "海之神景区", "location": {"lat": 22.592622, "lng": 113.876877}, "address": "广东省深圳市宝安区西乡广深公路铁仔山公园海之神景区", "detail": 1}, {"name": "库坑公园", "location": {"lat": 22.739775, "lng": 114.040897}, "address": "泗黎路404号附近", "detail": 1}, {"name": "龙岗人民革命烈士纪念碑", "location": {"lat": 22.761113, "lng": 114.256934}, "address": "白龙路附近", "detail": 1}, {"name": "四季植物馆", "location": {"lat": 22.6395, "lng": 114.286606}, "address": "深圳市盐田区大梅沙环碧路100号OCT华侨城·东部四季植物馆B1", "detail": 1}, {"name": "龙岩古寺", "location": {"lat": 22.598565, "lng": 114.475802}, "address": "广东省深圳市龙岗区大鹏街道坪西路观音山公园龙岩古寺", "detail": 1}, {"name": "茭塘公园", "location": {"lat": 22.726995, "lng": 113.816438}, "address": "沙井街道办茭塘居委会", "detail": 1}, {"name": "花果山公园", "location": {"lat": 22.778525, "lng": 113.849867}, "address": "广东省深圳市宝安区", "detail": 1}, {"name": "圆明园", "location": {"lat": 22.537171, "lng": 114.001391}, "address": "深圳市南山区深南大道9003号锦绣中华内", "detail": 1}, {"name": "西冲4号沙滩", "location": {"lat": 22.487974, "lng": 114.557069}, "address": "深圳市龙岗区南澳街道西冲社区", "detail": 1}, {"name": "灵山佛寺", "location": {"lat": 22.561722, "lng": 114.153749}, "address": "广东省深圳市罗湖区东湖公园灵山佛寺", "detail": 1}, {"name": "天涯海角", "location": {"lat": 22.534949, "lng": 113.998199}, "address": "深圳市南山区深南大道9003号锦绣中华内景点", "detail": 1}, {"name": "潮汐公园", "location": {"lat": 22.500355, "lng": 113.95875}, "address": "广东省深圳市南山区深圳湾公园潮汐公园", "detail": 1}, {"name": "梧桐山电视塔", "location": {"lat": 22.574017, "lng": 114.200161}, "address": "深圳市罗湖区莲塘罗沙路2076号", "detail": 1}, {"name": "西海堤", "location": {"lat": 22.597003, "lng": 113.841348}, "address": "深圳市宝安区宝源路", "detail": 1}, {"name": "田寮社区公园", "location": {"lat": 22.734817, "lng": 113.909365}, "address": "广东省深圳市宝安区田湾路田寮社区公园(金田湾世贸商城西)", "detail": 1}, {"name": "三洲茶园", "location": {"lat": 22.644383, "lng": 114.286433}, "address": "深圳市盐田区大梅沙东部华侨城内", "detail": 1}, {"name": "锦绣桃园", "location": {"lat": 22.53909, "lng": 113.995264}, "address": "深圳市南山区深南大道9001号", "detail": 1}, {"name": "中心公园", "location": {"lat": 22.690388, "lng": 114.068609}, "address": "广东省深圳市龙华区龙华新区观澜长兴路中心公园", "detail": 1}, {"name": "落马洲大桥", "location": {"lat": 22.521483, "lng": 114.082182}, "address": "深圳市福田区", "detail": 1}, {"name": "樟树布公园", "location": {"lat": 22.612688, "lng": 114.163634}, "address": "广东省深圳市龙岗区樟富路樟树布公园(万科·公园里附近)", "detail": 1}, {"name": "创亿未来城游乐园", "location": {"lat": 22.767753, "lng": 114.418655}, "address": "坪山新区坑梓街道沙田社区", "detail": 1}, {"name": "北帝古庙", "location": {"lat": 22.58187, "lng": 113.885989}, "address": "深圳市宝安区西乡镇真理街24号", "detail": 1}, {"name": "南山博物馆", "location": {"lat": 22.540733, "lng": 113.930473}, "address": "南山大道2093号", "detail": 1}, {"name": "凤凰山森林公园-亭子", "location": {"lat": 22.674973, "lng": 113.853359}, "address": "深圳市宝安区福永街道凤凰村凤凰山森林公园内", "detail": 1}, {"name": "大浪绿道", "location": {"lat": 22.705308, "lng": 114.005963}, "address": "深圳市龙华区新岭路93-25号", "detail": 1}, {"name": "前海石", "location": {"lat": 22.535892, "lng": 113.897172}, "address": "广东省深圳市南山区前湾一路", "detail": 1}, {"name": "基督教堂", "location": {"lat": 22.676453, "lng": 114.045682}, "address": "广东省深圳市龙华区和平路52号福轩大厦二层", "detail": 1}, {"name": "深圳会展中心-2展馆", "location": {"lat": 22.535678, "lng": 114.064336}, "address": "福华三路111号", "detail": 1}, {"name": "兴海公园", "location": {"lat": 22.498322, "lng": 113.892941}, "address": "深圳市南山区前海路12号", "detail": 1}, {"name": "万佛禅寺", "location": {"lat": 22.561506, "lng": 114.154622}, "address": "深圳市罗湖区罗沙路5026号", "detail": 1}, {"name": "关帝古庙", "location": {"lat": 22.760318, "lng": 113.81612}, "address": "广东省深圳市宝安区西涌三路68号", "detail": 1}, {"name": "深圳望野博物馆", "location": {"lat": 22.66025, "lng": 114.047568}, "address": "龙华新区梅龙大道与东环二路交汇处龙华文化艺术中心三楼", "detail": 1}, {"name": "深圳市水土保持科技示范园", "location": {"lat": 22.599715, "lng": 113.956696}, "address": "广东省深圳市南山区沙河西路4148", "detail": 1}, {"name": "石岩大树林公园", "location": {"lat": 22.691968, "lng": 113.949978}, "address": "横坑工业大道54号附近", "detail": 1}, {"name": "围仔西公园", "location": {"lat": 22.495574, "lng": 113.935796}, "address": "花果路28-1号", "detail": 1}, {"name": "东航游轮", "location": {"lat": 22.482148, "lng": 113.92027}, "address": "南山区蛇口客运码头国内候船厅", "detail": 1}, {"name": "下沙博物馆", "location": {"lat": 22.532694, "lng": 114.031378}, "address": "福田区下沙多功能文化楼1楼", "detail": 1}, {"name": "明华轮", "location": {"lat": 22.489362, "lng": 113.923437}, "address": "深圳市南山区太子路32号", "detail": 1}, {"name": "华美术馆", "location": {"lat": 22.539141, "lng": 113.989372}, "address": "南山区华侨城深南大道9009号", "detail": 1}, {"name": "锦绣园", "location": {"lat": 22.531885, "lng": 114.066031}, "address": "深圳市福田区三龙花园附近", "detail": 1}, {"name": "罗湖美术馆", "location": {"lat": 22.549754, "lng": 114.133762}, "address": "广东省深圳市罗湖区南极路6号", "detail": 1}, {"name": "热带雨林", "location": {"lat": 22.50588, "lng": 113.906306}, "address": "月亮湾青青路1号", "detail": 1}, {"name": "东江纵队司令部旧址", "location": {"lat": 22.619974, "lng": 114.415695}, "address": "葵涌镇土洋村海景路2号", "detail": 1}, {"name": "深圳会展中心-7展馆", "location": {"lat": 22.537203, "lng": 114.068102}, "address": "广东省深圳市福田区深圳会展中心", "detail": 1}, {"name": "招商局历史博物馆", "location": {"lat": 22.497382, "lng": 113.919483}, "address": "深圳市南山区蛇口沿山路21号", "detail": 1}, {"name": "关帝庙", "location": {"lat": 22.546554, "lng": 113.927356}, "address": "深南大道12022号", "detail": 1}, {"name": "深圳湾公园-婚庆公园", "location": {"lat": 22.497545, "lng": 113.959269}, "address": "望海路", "detail": 1}, {"name": "鸡公山七圣宫", "location": {"lat": 22.609687, "lng": 114.100056}, "address": "广东省深圳市龙岗区S209(清平高速公路)", "detail": 1}, {"name": "新桥公园", "location": {"lat": 22.740434, "lng": 113.845635}, "address": "广东省深圳市宝安区北环路115", "detail": 1}, {"name": "罗田社区公园", "location": {"lat": 22.810032, "lng": 113.88096}, "address": "富裕路附近", "detail": 1}, {"name": "深圳德逸公园", "location": {"lat": 22.638656, "lng": 114.034953}, "address": "广东省深圳市龙华区s360", "detail": 1}, {"name": "妈祖庙", "location": {"lat": 22.722021, "lng": 114.295035}, "address": "广东省深圳市龙岗区市场街", "detail": 1}, {"name": "石芽岭信义体育公园", "location": {"lat": 22.624823, "lng": 114.140917}, "address": "东西干道3号", "detail": 1}, {"name": "长圳公园", "location": {"lat": 22.72334, "lng": 113.926458}, "address": "深圳市宝安区长凤路359号", "detail": 1}, {"name": "观澜河湿地公园", "location": {"lat": 22.689576, "lng": 114.050958}, "address": "广东省深圳市龙华区观澜大道观澜河人工湿地(招商澜园西)", "detail": 1}, {"name": "深圳锦绣田园休闲度假旅游区", "location": {"lat": 22.824742, "lng": 113.944992}, "address": "广东省深圳市宝安区光明新区光明办事处新屋", "detail": 1}, {"name": "天主教深圳圣安多尼堂", "location": {"lat": 22.550394, "lng": 114.020676}, "address": "农林路65号", "detail": 1}, {"name": "迳口社区公园", "location": {"lat": 22.77095, "lng": 113.972794}, "address": "光明办事处", "detail": 1}, {"name": "中国版画博物馆", "location": {"lat": 22.742222, "lng": 114.092223}, "address": "深圳市龙华区裕新路", "detail": 1}, {"name": "大钟山", "location": {"lat": 22.725616, "lng": 113.829607}, "address": "万丰中路303号", "detail": 1}, {"name": "西田公园", "location": {"lat": 22.806783, "lng": 113.908715}, "address": "深圳市宝安区西田路35对面", "detail": 1}, {"name": "宝安耶稣君王堂", "location": {"lat": 22.590251, "lng": 113.917273}, "address": "上川路469号附近", "detail": 1}, {"name": "雅昌艺术馆", "location": {"lat": 22.577059, "lng": 114.073984}, "address": "广东省深圳市福田区梅东二路5号", "detail": 1}, {"name": "法国埃菲尔铁塔", "location": {"lat": 22.540152, "lng": 113.98084}, "address": "深圳市南山区深南大道9037号世界之窗内", "detail": 1}, {"name": "深圳市玄武观", "location": {"lat": 22.714948, "lng": 114.146528}, "address": "广东省深圳市龙岗区爱建路26号", "detail": 1}, {"name": "东和公园", "location": {"lat": 22.553507, "lng": 114.239715}, "address": "广东省深圳市盐田区海涛路9", "detail": 1}, {"name": "桥头社区公园", "location": {"lat": 22.693394, "lng": 113.813754}, "address": "深圳市宝安区桥兴路与桥和路交叉口处附近", "detail": 1}, {"name": "公明街心公园", "location": {"lat": 22.790963, "lng": 113.895843}, "address": "深圳市公明台兴男科医院对面", "detail": 1}, {"name": "杜鹃山", "location": {"lat": 22.535652, "lng": 113.942553}, "address": "南海大道3688号", "detail": 1}, {"name": "大望槟榔公园", "location": {"lat": 22.603074, "lng": 114.178408}, "address": "新平大道9号", "detail": 1}, {"name": "山海四季城Ⅱ·公园道", "location": {"lat": 22.597272, "lng": 114.265472}, "address": "广东省深圳市盐田区盐田路208号", "detail": 1}, {"name": "红岗公园", "location": {"lat": 22.582078, "lng": 114.120845}, "address": "泥岗东路(近深业车城)", "detail": 1}, {"name": "世外陶缘", "location": {"lat": 22.662338, "lng": 114.406081}, "address": "广东省深圳市坪山区区坪山新区金龟村金地西区7号", "detail": 1}, {"name": "浪骑游艇会", "location": {"lat": 22.559762, "lng": 114.567568}, "address": "龙岗区南澳镇新东路88号", "detail": 1}, {"name": "景观台", "location": {"lat": 22.589435, "lng": 113.85919}, "address": "广东省深圳市宝安区西乡宝源路碧海湾高尔夫俱乐部", "detail": 1}, {"name": "凤凰山农趣谷", "location": {"lat": 22.680399, "lng": 113.874136}, "address": "黄麻布190号天主堂附近", "detail": 1}, {"name": "大鹏山庄公园", "location": {"lat": 22.609552, "lng": 114.475488}, "address": "广东省深圳市龙岗区大鹏街道鹏飞路大鹏山庄公园", "detail": 1}, {"name": "云海谷体育公园", "location": {"lat": 22.634288, "lng": 114.296104}, "address": "深圳市盐田区大梅沙东部华侨城", "detail": 1}, {"name": "中洲地产中央公园", "location": {"lat": 22.578402, "lng": 113.912559}, "address": "广东省深圳市宝安区公园路西1巷-24号", "detail": 1}, {"name": "翠湖公园", "location": {"lat": 22.77152, "lng": 113.952556}, "address": "光明新区光明荔园路国土局光明所附近", "detail": 1}, {"name": "麻磡公园", "location": {"lat": 22.640315, "lng": 113.957894}, "address": "广东省深圳市南山区麻磡公园(丽康路南)", "detail": 1}, {"name": "仙桐体育公园", "location": {"lat": 22.567566, "lng": 114.192052}, "address": "莲塘梧桐山(近莲塘罗湖公安局)", "detail": 1}, {"name": "龙东公园", "location": {"lat": 22.725286, "lng": 114.296885}, "address": "深圳市龙岗区源盛路64-2号", "detail": 1}, {"name": "宝安区基督教西乡堂", "location": {"lat": 22.57779, "lng": 113.88524}, "address": "广东省深圳市宝安区柳竹园二巷2号", "detail": 1}, {"name": "深圳市银湖旅游中心", "location": {"lat": 22.588237, "lng": 114.082693}, "address": "福田区银湖路38号（近相思林公园）", "detail": 1}, {"name": "六约公园", "location": {"lat": 22.640907, "lng": 114.194284}, "address": "深圳市龙岗区礼耕路49号六约展鹏幼儿园对面", "detail": 1}, {"name": "内湖公园", "location": {"lat": 22.511552, "lng": 113.956483}, "address": "东滨沙河西立交桥与东滨路交叉口东北150米", "detail": 1}, {"name": "周恩来总理纪念馆", "location": {"lat": 22.612583, "lng": 114.138949}, "address": "沿河路28号附近", "detail": 1}, {"name": "银湖山郊野公园-文谷庄园", "location": {"lat": 22.608779, "lng": 114.103609}, "address": "广东省深圳市龙岗区文博路", "detail": 1}, {"name": "桃花林", "location": {"lat": 22.561896, "lng": 114.059254}, "address": "深圳市福田区莲花路1116号附近", "detail": 1}, {"name": "山厦公园", "location": {"lat": 22.707942, "lng": 114.121576}, "address": "惠华西路24号", "detail": 1}, {"name": "楼岗公园", "location": {"lat": 22.77295, "lng": 113.863058}, "address": "办楼岗村楼岗北三巷", "detail": 1}, {"name": "柬埔寨吴哥窟", "location": {"lat": 22.54046, "lng": 113.98266}, "address": "深圳市南山区深南大道9037号世界之窗内", "detail": 1}, {"name": "观祥古寺", "location": {"lat": 22.617151, "lng": 114.169352}, "address": "沙平北路83-1号", "detail": 1}, {"name": "深圳会展中心-6展馆", "location": {"lat": 22.537182, "lng": 114.067308}, "address": "广东省深圳市福田区深圳会展中心", "detail": 1}, {"name": "荔云登山道", "location": {"lat": 22.573043, "lng": 113.988964}, "address": "深圳市南山区龙珠六路", "detail": 1}, {"name": "深圳湾公园-观桥公园", "location": {"lat": 22.494018, "lng": 113.958788}, "address": "深圳市南山区望海路附近", "detail": 1}, {"name": "湖贝公园", "location": {"lat": 22.551, "lng": 114.13188}, "address": "深圳市罗湖区湖贝旧村南坊113", "detail": 1}, {"name": "深圳凤凰古村落文化旅游集聚区导游图", "location": {"lat": 22.696067, "lng": 113.842785}, "address": "广东省深圳市宝安区凤凰山大道196附近", "detail": 1}, {"name": "西门公园", "location": {"lat": 22.672572, "lng": 113.82226}, "address": "深圳市宝安区福永大道180号", "detail": 1}, {"name": "上梅林文体公园", "location": {"lat": 22.573096, "lng": 114.056097}, "address": "深圳市福田区梅林路133号", "detail": 1}, {"name": "桂庙新村-大榕树", "location": {"lat": 22.531926, "lng": 113.941038}, "address": "深圳市南山区白石路4205号", "detail": 1}, {"name": "老虎沟", "location": {"lat": 22.639928, "lng": 114.252908}, "address": "广东省深圳市龙岗区横岗大康公园路", "detail": 1}, {"name": "长寿岛", "location": {"lat": 22.602908, "lng": 113.983128}, "address": "春园路9号", "detail": 1}, {"name": "前海展示厅", "location": {"lat": 22.521892, "lng": 113.91056}, "address": "前海深港合作区前湾一路1号a栋", "detail": 1}, {"name": "凤凰山森林公园-烧烤场", "location": {"lat": 22.688053, "lng": 113.855075}, "address": "深圳市宝安区福永街道凤凰村凤凰山森林公园内", "detail": 1}, {"name": "EPC艺术中心", "location": {"lat": 22.538764, "lng": 113.992645}, "address": "南山区深南大道9005号(洲际大酒店东侧EPC楼一楼)", "detail": 1}, {"name": "化石森林", "location": {"lat": 22.589661, "lng": 114.183837}, "address": "深圳市罗湖区莲塘仙湖路160号仙湖植物园内", "detail": 1}, {"name": "红花岭公园", "location": {"lat": 22.761138, "lng": 114.256773}, "address": "广东省深圳市龙岗区清水路", "detail": 1}, {"name": "石厦大榕树", "location": {"lat": 22.526986, "lng": 114.056986}, "address": "深圳市石夏北一街", "detail": 1}, {"name": "文化潮汕博览园", "location": {"lat": 22.581816, "lng": 113.872118}, "address": "西乡大道280号", "detail": 1}, {"name": "深圳经济特区建立三十周年纪念园", "location": {"lat": 22.556563, "lng": 114.070669}, "address": "深圳市福田区红荔路6030号(儿童医院对面)莲花山公园内", "detail": 1}, {"name": "深圳国际展览中心", "location": {"lat": 22.568753, "lng": 114.10105}, "address": "广东省深圳市福田区上步北路1026号", "detail": 1}, {"name": "罗湖体育休闲公园", "location": {"lat": 22.563111, "lng": 114.15566}, "address": "黄贝街道办爱国路东湖二路10号", "detail": 1}, {"name": "海华公园", "location": {"lat": 22.570844, "lng": 113.893943}, "address": "川安路30号(碧涛阁斜对面)", "detail": 1}, {"name": "园山风景区-农庄", "location": {"lat": 22.646683, "lng": 114.246422}, "address": "广东省深圳市龙岗区公园路83号附近", "detail": 1}, {"name": "深圳市群众艺术馆", "location": {"lat": 22.553214, "lng": 114.099128}, "address": "福田区燕南路95号", "detail": 1}, {"name": "日月潭野炊山庄", "location": {"lat": 22.683368, "lng": 114.225259}, "address": "横岗街道机荷高速荷坳服务区一楼附近", "detail": 1}, {"name": "茂盛公园", "location": {"lat": 22.658722, "lng": 114.208828}, "address": "深圳市龙岗区华乐路6号", "detail": 1}, {"name": "游乐场（华南城）", "location": {"lat": 22.683013, "lng": 114.132609}, "address": "龙岗区平湖华南城游乐场", "detail": 1}, {"name": "玄坛古庙", "location": {"lat": 22.580394, "lng": 113.886895}, "address": "深圳市宝安区河东路90-2号", "detail": 1}, {"name": "法国巴黎圣母院", "location": {"lat": 22.538726, "lng": 113.980722}, "address": "深圳市南山区深南大道9037号世界之窗内", "detail": 1}, {"name": "泰山涧", "location": {"lat": 22.596292, "lng": 114.205891}, "address": "深圳市罗湖区望桐路梧桐山内", "detail": 1}, {"name": "大浪体育公园", "location": {"lat": 22.688524, "lng": 114.014839}, "address": "泥头咀新九巷与爱义路交叉口西北150米", "detail": 1}, {"name": "深圳会展中心-9展馆", "location": {"lat": 22.535861, "lng": 114.068542}, "address": "福华三路", "detail": 1}, {"name": "仙湖", "location": {"lat": 22.587755, "lng": 114.182122}, "address": "深圳市罗湖区莲塘仙湖路160号仙湖植物园内", "detail": 1}, {"name": "东部华侨城游览观光车1号站", "location": {"lat": 22.611923, "lng": 114.312052}, "address": "深圳市盐田区大梅沙东部华侨城大侠谷景区内", "detail": 1}, {"name": "凤凰古村文塔", "location": {"lat": 22.697907, "lng": 113.845625}, "address": "广东省深圳市宝安区凤凰山大道172号", "detail": 1}, {"name": "新生公园", "location": {"lat": 22.748446, "lng": 114.281244}, "address": "深圳市龙岗区凤岭街11附近", "detail": 1}, {"name": "龙尊塔", "location": {"lat": 22.583263, "lng": 114.183559}, "address": "深圳市罗湖区莲塘仙湖路160号仙湖植物园内", "detail": 1}, {"name": "草围公园", "location": {"lat": 22.630223, "lng": 113.845774}, "address": "黄田草围村龟山路21号", "detail": 1}, {"name": "茂盛世居", "location": {"lat": 22.659152, "lng": 114.208245}, "address": "深圳市龙岗区茂盛路169号", "detail": 1}, {"name": "臣田公园", "location": {"lat": 22.599308, "lng": 113.883413}, "address": "宝田一路16号", "detail": 1}, {"name": "布达拉宫(西藏)", "location": {"lat": 22.538114, "lng": 113.996261}, "address": "深圳市南山区深南大道9003号中国民俗文化村内", "detail": 1}, {"name": "弯月山谷", "location": {"lat": 22.511299, "lng": 113.960195}, "address": "广东省深圳市南山区深圳湾公园弯月山谷", "detail": 1}, {"name": "章阁公园", "location": {"lat": 22.749407, "lng": 114.017309}, "address": "广东省深圳市龙华区观澜镇章阁村章阁老村012栋509室", "detail": 1}, {"name": "宝芝林", "location": {"lat": 22.546808, "lng": 114.014966}, "address": "深圳市福田区侨城东路深南大道8002号深圳国际园林花卉博览园内", "detail": 1}, {"name": "世外桃源", "location": {"lat": 22.541461, "lng": 114.006341}, "address": "深圳市福田区侨城东路深南大道8002号深圳国际园林花卉博览园内", "detail": 1}, {"name": "樟坑径公园", "location": {"lat": 22.685982, "lng": 114.088038}, "address": "上围路104号附近", "detail": 1}, {"name": "深圳市基督教福星教会", "location": {"lat": 22.541852, "lng": 114.089396}, "address": "深圳市福田区福星花园大厦4楼413", "detail": 1}, {"name": "大梅沙海滨公园-入口", "location": {"lat": 22.597021, "lng": 114.312406}, "address": "盐梅路18号", "detail": 1}, {"name": "平山公园", "location": {"lat": 22.59056, "lng": 113.972216}, "address": "深圳市南山区平山村365号302房", "detail": 1}, {"name": "激流勇进", "location": {"lat": 22.549357, "lng": 113.98558}, "address": "广东省深圳市南山区侨城西街1号欢乐谷飓风湾内", "detail": 1}, {"name": "文天祥纪念馆", "location": {"lat": 22.697164, "lng": 113.843027}, "address": "深圳市宝安区永凤路", "detail": 1}, {"name": "花海", "location": {"lat": 22.738127, "lng": 113.83662}, "address": "沙井中心路东星汉永酒店3楼", "detail": 1}, {"name": "盐田双拥公园", "location": {"lat": 22.597337, "lng": 114.266399}, "address": "深圳市盐田区北山道148号明珠苑3栋", "detail": 1}, {"name": "反斗乐园(京基百纳店)", "location": {"lat": 22.537518, "lng": 113.975231}, "address": "深圳市南山区白石路2168号南山京基·百纳广场F3", "detail": 1}, {"name": "杜鹃公园", "location": {"lat": 22.644731, "lng": 114.178444}, "address": "深圳市龙岗区深坑路167号", "detail": 1}, {"name": "双龙游乐场", "location": {"lat": 22.73542, "lng": 114.280371}, "address": "深圳市龙岗区龙平东路143号人人购物广场F3", "detail": 1}, {"name": "深圳大南山改革开放纪念公园", "location": {"lat": 22.50321, "lng": 113.924298}, "address": "沿山路51号深圳大南山改革开放纪念公园(东南门)附近", "detail": 1}, {"name": "料坑社区公园", "location": {"lat": 22.673944, "lng": 113.900845}, "address": "广东省深圳市宝安区光明新区料坑社区公园(南光高速公路西)", "detail": 1}, {"name": "东湖公园-盆景世界", "location": {"lat": 22.571437, "lng": 114.155602}, "address": "深圳市罗湖区东湖一街14号东湖公园内", "detail": 1}, {"name": "龙秋古井", "location": {"lat": 22.526519, "lng": 114.068457}, "address": "水围街48号附近", "detail": 1}, {"name": "相思林公园", "location": {"lat": 22.586127, "lng": 114.08555}, "address": "深圳市福田区银湖路银湖旅游中心", "detail": 1}, {"name": "华光古庙", "location": {"lat": 22.533622, "lng": 113.92572}, "address": "深圳市南山区学府路132号", "detail": 1}, {"name": "深圳会展中心-3展馆", "location": {"lat": 22.536997, "lng": 114.064035}, "address": "广东省深圳市福田区深圳会展中心", "detail": 1}, {"name": "深圳会展中心-8展馆", "location": {"lat": 22.53723, "lng": 114.068902}, "address": "广东省深圳市福田区深圳会展中心", "detail": 1}, {"name": "白石龙音乐主题公园", "location": {"lat": 22.603413, "lng": 114.045095}, "address": "深圳市", "detail": 1}, {"name": "天后古庙", "location": {"lat": 22.484612, "lng": 113.89861}, "address": "赤湾六路9号", "detail": 1}, {"name": "《地道战》影视拍摄场", "location": {"lat": 22.546601, "lng": 113.986245}, "address": "深圳市南山区侨城西街1号欢乐谷内", "detail": 1}, {"name": "回龙埔公园", "location": {"lat": 22.743626, "lng": 114.248225}, "address": "龙岗区龙城街道，东隔十九号路，北临北通道，西临二十号路，南隔待建的三十八号路，毗邻于深业·紫麟山西侧", "detail": 1}, {"name": "西丽动物园总站", "location": {"lat": 22.602143, "lng": 113.971879}, "address": "广东省深圳市南山区西丽湖路4001", "detail": 1}, {"name": "深圳湾观海栈桥", "location": {"lat": 22.490988, "lng": 113.954913}, "address": "深圳市南山区深圳湾公园C区-运动公园内", "detail": 1}, {"name": "海滨浴场", "location": {"lat": 22.553551, "lng": 114.488516}, "address": "龙岗区水头沙社区", "detail": 1}, {"name": "沁园公园", "location": {"lat": 22.560172, "lng": 113.916661}, "address": "宝民一路与湖滨路交叉口北50米", "detail": 1}, {"name": "深圳湾公园-白鹭坡", "location": {"lat": 22.525184, "lng": 113.978479}, "address": "深圳市南山区滨海大道", "detail": 1}, {"name": "将石公园", "location": {"lat": 22.761787, "lng": 113.905134}, "address": "广东省深圳市宝安区周家路", "detail": 1}, {"name": "佛祖庙", "location": {"lat": 22.70116, "lng": 114.247055}, "address": "深圳市龙岗区蒲排南路48号", "detail": 1}, {"name": "PURE33璞岸", "location": {"lat": 22.608477, "lng": 114.48805}, "address": "深圳市大鹏新区鹏飞路北侧（大鹏山庄旁）", "detail": 1}, {"name": "合水口公园", "location": {"lat": 22.794047, "lng": 113.882025}, "address": "深圳市宝安区文阁路5号", "detail": 1}, {"name": "海菲德小镇", "location": {"lat": 22.614132, "lng": 114.310687}, "address": "深圳市盐田区大梅沙东部华侨城内", "detail": 1}, {"name": "低山社区公园", "location": {"lat": 22.748816, "lng": 114.295083}, "address": "低山南路和低山中路的交叉口附近", "detail": 1}, {"name": "百旺公园", "location": {"lat": 22.626744, "lng": 113.946351}, "address": "广东省深圳市南山区宝安中心区沙河西路白芒村百旺公园", "detail": 1}, {"name": "矿山车", "location": {"lat": 22.548806, "lng": 113.987782}, "address": "深圳市南山区欢乐谷内", "detail": 1}, {"name": "曲水湾", "location": {"lat": 22.529979, "lng": 113.997995}, "address": "白石路东八号曲水湾欢乐海岸", "detail": 1}, {"name": "世界地图喷泉", "location": {"lat": 22.541173, "lng": 113.981279}, "address": "深圳市南山区深南大道9037号世界之窗内", "detail": 1}, {"name": "广场体育公园", "location": {"lat": 22.730079, "lng": 113.837901}, "address": "广东省深圳市宝安区上星路119号", "detail": 1}, {"name": "中国文化名人大营救纪念馆", "location": {"lat": 22.611386, "lng": 114.043257}, "address": "深圳市龙华区白石龙老村1", "detail": 1}, {"name": "吉田墓园", "location": {"lat": 22.635389, "lng": 114.169549}, "address": "龙岗大道549", "detail": 1}, {"name": "东门街", "location": {"lat": 22.601586, "lng": 114.520194}, "address": "立诚宾馆211房间", "detail": 1}, {"name": "葵涌街道官湖社区公园", "location": {"lat": 22.608143, "lng": 114.431482}, "address": "大鹏新区官湖路1-4", "detail": 1}, {"name": "基督教宝安堂", "location": {"lat": 22.590238, "lng": 113.898312}, "address": "深圳市宝安区流塘路东区4", "detail": 1}, {"name": "深圳大鹏半岛国家地质公园博物馆", "location": {"lat": 22.534115, "lng": 114.536081}, "address": "广东省深圳市龙岗区地质公园路", "detail": 1}]