[{"name": "东部华侨城", "address": "大梅沙东部华侨城", "avgprice": 265, "pic": "http://p1.meituan.net/hotel/f2b0984815605d5a17f9bb2654eb384b289551.png", "shopid": 2294980, "lng": 114.28767, "lat": 22.6268, "dishtag": "其他景点", "shoppower": 50}, {"name": "锦绣中华民俗文化村", "address": "深南大道9003号", "avgprice": 133, "pic": "http://p1.meituan.net/travel/8d0953df24696bb693c9aa3ee8e01525203855.jpg", "shopid": 1705747, "lng": 113.98861, "lat": 22.53084, "dishtag": "其他景点", "shoppower": 50}, {"name": "深圳欢乐谷", "address": "华侨城西路侨城西街", "avgprice": 200, "pic": "http://p0.meituan.net/hotel/f3e7b8dbb53f80f67c0a780bde3a72b61319381.png", "shopid": 6105063, "lng": 113.98085, "lat": 22.54157, "dishtag": "游乐园", "shoppower": 45}, {"name": "世界之窗", "address": "华侨城深南大道9037号", "avgprice": 175, "pic": "http://p0.meituan.net/travel/e3bcf6de9158ba837aef7fd194477369101578.jpg", "shopid": 1705777, "lng": 113.97297, "lat": 22.53452, "dishtag": "其他景点", "shoppower": 45}, {"name": "红树林海滨公园", "address": "下沙村滨河大道南侧红树林海滨公园", "avgprice": 19, "pic": "http://p0.meituan.net/hotel/64a7f487da73dba6b9e1d8e328be00c5284369.jpg", "shopid": 3691270, "lng": 114.00095, "lat": 22.52553, "dishtag": "公园", "shoppower": 50}, {"name": "深圳湾公园", "address": "滨海大道", "avgprice": 13, "pic": "http://p0.meituan.net/hotel/6a4bbded2cbf47ac2a67feb036b0d660206951.png", "shopid": 4698755, "lng": 113.953735, "lat": 22.50441, "dishtag": "公园", "shoppower": 50}, {"name": "梧桐山", "address": "罗沙路2076号", "avgprice": 35, "pic": "http://p0.meituan.net/travel/f33f3fac6aeb6803136003acd90f02a3104022.jpg", "shopid": 58858730, "lng": 114.21469, "lat": 22.577667, "dishtag": "自然风光", "shoppower": 50}, {"name": "海上世界", "address": "望海路1128号", "avgprice": 109, "pic": "http://p1.meituan.net/travel/ff0178f501adf18b3155d37632a09dae104727.jpg", "shopid": 58565973, "lng": 113.91644, "lat": 22.482954, "dishtag": "城市观光", "shoppower": 50}, {"name": "红树林自然保护区", "address": "滨海大道华侨城路段福田红树林自然保护区", "avgprice": 14, "pic": "http://p0.meituan.net/travel/4754d2a8bbab08a5c0cba274519bfb4a119246.jpg", "shopid": 2107627, "lng": 114.01297, "lat": 22.523815, "dishtag": "自然风光", "shoppower": 50}, {"name": "莲花山公园", "address": "红荔路6030号", "avgprice": 4, "pic": "http://p0.meituan.net/travel/eba52bae05ee0fc1e5d32c1ff31c8ea3747512.png", "shopid": 1705546, "lng": 114.05577, "lat": 22.54869, "dishtag": "公园", "shoppower": 50}, {"name": "杨梅坑", "address": "南澳桔钓沙", "avgprice": 66, "pic": "http://p1.meituan.net/hoteltdc/b43a1f871e48154da66a84ce03fb651c84571.jpg", "shopid": 4061458, "lng": 114.57234, "lat": 22.542791, "dishtag": "自然风光", "shoppower": 50}, {"name": "欢乐海岸teamlab舞动艺术展未来游乐园", "address": "白石路8号华侨城欢乐海岸OTC创展中心及户外广场", "avgprice": 196, "pic": "http://p1.meituan.net/hotel/359222d52213082bdfb9644a0005705e326573.png", "shopid": 93364546, "lng": 113.99139, "lat": 22.525185, "dishtag": "主题乐园", "shoppower": 45}, {"name": "茵特拉根小镇", "address": "大梅沙东部华侨城内", "avgprice": 108, "pic": "http://p1.meituan.net/travel/9046301a8c8e772f3191404bb26a71d995323.jpg", "shopid": 65732069, "lng": 114.27603, "lat": 22.633087, "dishtag": "观光街区", "shoppower": 45}, {"name": "荷兰花卉小镇", "address": "月亮湾大道3008号", "avgprice": 43, "pic": "http://p0.meituan.net/travel/5b2f8a01f5dae421823cc6e67f38618a371971.png", "shopid": 5544796, "lng": 113.91364, "lat": 22.544163, "dishtag": "观光街区", "shoppower": 45}, {"name": "东部华侨城茶溪谷", "address": "大梅沙东部华侨城茶溪谷", "avgprice": 182, "pic": "http://p1.meituan.net/travel/7d94d32cfc3ab426aa88fd3bf2eb137c106112.jpg", "shopid": 5530878, "lng": 114.28218, "lat": 22.631382, "dishtag": "其他景点", "shoppower": 45}, {"name": "玫瑰海岸", "address": "葵冲街道西冲社区上洞村深葵路551号", "avgprice": 38, "pic": "http://p1.meituan.net/travel/0f45882047082951acecc9904d4af806416259.png", "shopid": 5301784, "lng": 114.37716, "lat": 22.609497, "dishtag": "海滨沙滩", "shoppower": 45}, {"name": "香蜜公园", "address": "农园路30号", "avgprice": -1, "pic": "http://p1.meituan.net/hoteltdc/73c873663f459f0d8726d0cafb0b61e9569980.jpg", "shopid": 93723091, "lng": 114.023415, "lat": 22.543594, "dishtag": "公园", "shoppower": 50}, {"name": "笔架山公园", "address": "梅岗路与梅岗南街交汇处", "avgprice": 10, "pic": "http://p0.meituan.net/hotel/b8fc5c0945dcdbdac1a77a3b6f953be7696452.png", "shopid": 1705531, "lng": 114.08188, "lat": 22.564505, "dishtag": "自然风光", "shoppower": 50}, {"name": "大鹏所城", "address": "大鹏街道鹏城社区", "avgprice": 109, "pic": "http://p1.meituan.net/travel/98bd79025a1389e47625dad63a8c799d275882.png", "shopid": 1705723, "lng": 114.51325, "lat": 22.595291, "dishtag": "名胜古迹", "shoppower": 45}, {"name": "弘法寺", "address": "仙湖植物园内", "avgprice": 28, "pic": "http://p1.meituan.net/travel/5732f3a73eff9c6953b39fcad6663b1c549817.png", "shopid": 5646063, "lng": 114.181526, "lat": 22.577848, "dishtag": "名胜古迹", "shoppower": 50}, {"name": "东部华侨城大侠谷", "address": "东部华侨城", "avgprice": 206, "pic": "http://p1.meituan.net/hotel/f2b0984815605d5a17f9bb2654eb384b289551.png", "shopid": 10786999, "lng": 114.288475, "lat": 22.618862, "dishtag": "其他景点", "shoppower": 40}, {"name": "华侨城文化创意园", "address": "开平街华侨城文化创意园", "avgprice": 72, "pic": "http://p1.meituan.net/travel/624772fc1b3f27c9c3faf24244529c66469586.png", "shopid": 58927969, "lng": 113.99383, "lat": 22.536121, "dishtag": "其他景点", "shoppower": 45}, {"name": "1979文化创意园", "address": "侨香东路1011号1979文化新天地", "avgprice": 165, "pic": "http://p1.meituan.net/travel/f9cc7395665695dcad3aeec1ed1b0fdb409043.png", "shopid": 38106984, "lng": 114.02902, "lat": 22.552204, "dishtag": "观光街区", "shoppower": 40}, {"name": "大梅沙海滨公园", "address": "大梅沙盐葵路33号", "avgprice": -1, "pic": "http://p0.meituan.net/hotel/0595457d0d0e94907df6c9bd0486c357352538.png", "shopid": 94790302, "lng": 114.30864, "lat": 22.593328, "dishtag": "海滨沙滩", "shoppower": 45}, {"name": "春江游乐求水山景区游乐场", "address": "南岭村求水山公园内", "avgprice": 125, "pic": "http://p0.meituan.net/travel/d75f77ed2042e2b2a4e9cef218a19cda455327.png", "shopid": 4033600, "lng": 114.14336, "lat": 22.599398, "dishtag": "主题乐园", "shoppower": 45}, {"name": "甘坑客家小镇", "address": "吉华街道甘坑社区甘李路18号", "avgprice": 29, "pic": "http://p1.meituan.net/travel/521ada58d2530a724568caea591536c2631631.png", "shopid": 67293627, "lng": 114.10572, "lat": 22.654505, "dishtag": "其他景点", "shoppower": 40}, {"name": "版画村", "address": "观澜大水田", "avgprice": 51, "pic": "http://p1.meituan.net/travel/e3c38971dc6d43f8ae6812cd2c374d70351604.png", "shopid": 4520582, "lng": 114.08848, "lat": 22.741302, "dishtag": "名胜古迹", "shoppower": 45}, {"name": "东门老街", "address": "解放路", "avgprice": 486, "pic": "http://p1.meituan.net/travel/8a2c9d842e22ede62e54359960fee9fc511597.png", "shopid": 48700558, "lng": 114.118675, "lat": 22.545576, "dishtag": "观光街区", "shoppower": 40}, {"name": "洪湖公园", "address": "文锦北路2023号", "avgprice": 9, "pic": "http://p0.meituan.net/travel/099437a4cc8742dec73b99cf055e2b8a91196.jpg", "shopid": 1705540, "lng": 114.12078, "lat": 22.562954, "dishtag": "公园", "shoppower": 50}, {"name": "西冲沙滩", "address": "大鹏半岛南澳西冲海滨浴场", "avgprice": 128, "pic": "http://p1.meituan.net/travel/6522077abf3d54fdd1bbcbc793645c0d48695.jpg", "shopid": 2635450, "lng": 114.538345, "lat": 22.476107, "dishtag": "海滨沙滩", "shoppower": 40}, {"name": "美人鱼帆船游艇俱乐部", "address": "南澳街道东山社区七星湾", "avgprice": -1, "pic": "http://p1.meituan.net/hotel/d1122e49abcc87f7630412e90559990d163684.jpg", "shopid": 9958064, "lng": 114.53929, "lat": 22.562183, "dishtag": "其他景点", "shoppower": 50}, {"name": "凤凰山公园", "address": "福永镇凤凰山大道", "avgprice": 20, "pic": "http://p0.meituan.net/travel/94576faf851d80c99813581984827d0190842.jpg", "shopid": 1705729, "lng": 113.85339, "lat": 22.680628, "dishtag": "自然风光", "shoppower": 45}, {"name": "南山公园", "address": "别墅路8号", "avgprice": 7, "pic": "http://p1.meituan.net/travel/3627d0fc2c8819da2986e6230b1a5e1f758661.png", "shopid": 32553730, "lng": 113.90541, "lat": 22.494125, "dishtag": "公园", "shoppower": 50}, {"name": "东湖公园(爱国路)", "address": "爱国路4006号", "avgprice": 25, "pic": "http://p1.meituan.net/hotel/b4a56e306eeb2023dd119841cca34635597426.png", "shopid": 1705534, "lng": 114.14359, "lat": 22.5668, "dishtag": "公园", "shoppower": 50}, {"name": "京基100观光", "address": "深南东路5016号", "avgprice": -1, "pic": "http://p1.meituan.net/travel/45e1daf7425b8162ec579526eebf9ffd118594.jpg", "shopid": 32413626, "lng": 114.10665, "lat": 22.543077, "dishtag": "城市观光", "shoppower": 40}, {"name": "深圳人才公园", "address": "科苑南路3329号", "avgprice": -1, "pic": "http://qcloud.dpfile.com/pc/-BLrSokkXxDm1yyGevVhsOyCIbZIEaXQdNw_c8LuTC2QS8mZfO1Y_kfZdFknlLWotOnd3gXQdDYlAqlaVaAFeZ0rYYyiRo_EhzufqWWjTjs.jpg", "shopid": 93571648, "lng": 113.94989, "lat": 22.506811, "dishtag": "公园", "shoppower": 50}, {"name": "羊台山森林公园", "address": "石岩镇龙眼山村", "avgprice": 9, "pic": "http://p1.meituan.net/hotel/9ca8e616c0e2e2b4a0acf7a160b4f42c435584.png", "shopid": 1705792, "lng": 113.96376, "lat": 22.65296, "dishtag": "自然风光", "shoppower": 45}, {"name": "荔枝公园", "address": "红岭中路1001号", "avgprice": 17, "pic": "http://p0.meituan.net/travel/a6b641522f0b6fda13e17bef8afe44ea83918.jpg", "shopid": 1705543, "lng": 114.102295, "lat": 22.54561, "dishtag": "公园", "shoppower": 50}, {"name": "梅林水库", "address": "梅林一村", "avgprice": -1, "pic": "http://p1.meituan.net/hotel/058160bbbb54f9576e28b02f0830d23e371647.png", "shopid": 4034023, "lng": 114.03072, "lat": 22.56983, "dishtag": "自然风光", "shoppower": 45}, {"name": "南澳鹿嘴山庄度假村", "address": "南澳杨梅坑新东路", "avgprice": 229, "pic": "http://p1.meituan.net/hotel/a39cce826fcaede35dccbda6bcc5fdb3443299.png", "shopid": 58580496, "lng": 114.60799, "lat": 22.540792, "dishtag": "名胜古迹", "shoppower": 45}, {"name": "中英街", "address": "沙头角镇", "avgprice": 160, "pic": "http://p1.meituan.net/travel/7f03c3faff0f4d5f56f3bc36c5ea18db283752.png", "shopid": 23989186, "lng": 114.23205, "lat": 22.544857, "dishtag": "观光街区", "shoppower": 35}, {"name": "深圳东部华侨城大华兴寺", "address": "大梅沙东部华侨城", "avgprice": 35, "pic": "http://p0.meituan.net/travel/0f95c4e9cbbbdca8ff1fe10e0d401311349696.png", "shopid": 5258639, "lng": 114.28728, "lat": 22.624973, "dishtag": "名胜古迹", "shoppower": 45}, {"name": "欢乐海岸", "address": "白石路8号欢乐海岸椰林沙滩", "avgprice": 158, "pic": "http://p0.meituan.net/hotel/3eb455c7109bbcbca50547f8ef2e9a13554544.png", "shopid": 56595610, "lng": 113.98855, "lat": 22.521381, "dishtag": "其他景点", "shoppower": 45}, {"name": "欢乐海岸", "address": "滨海大道208号", "avgprice": -1, "pic": "http://p0.meituan.net/hotel/3eb455c7109bbcbca50547f8ef2e9a13554544.png", "shopid": 56595610, "lng": 113.992469, "lat": 22.52202, "dishtag": "其他景点", "shoppower": 45}, {"name": "深圳光明农场", "address": "光明新区碧水路光明农场大观园", "avgprice": 91, "pic": "http://p1.meituan.net/travel/4c8ed01a17385cef5953b66893c720a1327691.png", "shopid": 2456362, "lng": 113.96229, "lat": 22.758041, "dishtag": "其他景点", "shoppower": 35}, {"name": "大芬油画村", "address": "布吉镇大芬村", "avgprice": 73, "pic": "http://p1.meituan.net/hotel/d80e4d3fa2f11260b56df7aab23b2570315652.png", "shopid": 2255944, "lng": 114.13617, "lat": 22.609625, "dishtag": "其他景点", "shoppower": 40}, {"name": "小梅沙沙滩", "address": "盐葵路小梅沙段39号", "avgprice": 66, "pic": "http://p1.meituan.net/travel/b862050a4fdfbadf022c97342d58030d299395.png", "shopid": 23575117, "lng": 114.32807, "lat": 22.600931, "dishtag": "海滨沙滩", "shoppower": 40}, {"name": "地王观光·深港之窗", "address": "深南东路5002号信兴广场地王商业中心69楼", "avgprice": 81, "pic": "http://p0.meituan.net/poi/e965e7111c954cc2dda89b190a0e98e3122880.jpg", "shopid": 18127665, "lng": 114.11071, "lat": 22.542728, "dishtag": "高空观景", "shoppower": 35}, {"name": "观澜湖", "address": "龙华新区观澜镇高尔夫大道1号", "avgprice": -1, "pic": "http://p0.meituan.net/travel/9fd80c2bea25d9bcea5ab64db865e8c9473422.png", "shopid": 5285479, "lng": 114.07686, "lat": 22.7382, "dishtag": "其他景点", "shoppower": 40}, {"name": "宝安西湾红树林湿地公园", "address": "134乡道", "avgprice": -1, "pic": "http://p0.meituan.net/travel/530983958441abd09e34edde19dc9d6b124399.jpg", "shopid": 27129744, "lng": 113.8365, "lat": 22.587265, "dishtag": "公园", "shoppower": 40}, {"name": "较场尾", "address": "大鹏镇", "avgprice": 281, "pic": "http://p1.meituan.net/travel/86a2a829c8333a9d566030d6d318223a277214.png", "shopid": 19429728, "lng": 114.510185, "lat": 22.588787, "dishtag": "海滨沙滩", "shoppower": 40}, {"name": "海上田园", "address": "沙井民主大道海上田园旅游风景区", "avgprice": 61, "pic": "http://p0.meituan.net/travel/1bb1e1c1b3aa9418e97d62c64a36dbf3180745.jpg", "shopid": 1705735, "lng": 113.774185, "lat": 22.727207, "dishtag": "其他景点", "shoppower": 35}, {"name": "观澜山水田园", "address": "观澜镇君子布环观南路山水田园旅游文化园", "avgprice": 155, "pic": "http://p1.meituan.net/hotel/fb38b8a8aacf190987313471e47d9d972214006.png", "shopid": 5191653, "lng": 114.10702, "lat": 22.715275, "dishtag": "其他景点", "shoppower": 35}, {"name": "儿童公园(童乐路店)", "address": "童乐路12号", "avgprice": 40, "pic": "http://p1.meituan.net/hotel/9467ad5d0a7de3430ba086533eaf8aa5407324.png", "shopid": 1705537, "lng": 114.12427, "lat": 22.553522, "dishtag": "公园", "shoppower": 40}, {"name": "西冲情人岛", "address": "南澳西冲沙滩", "avgprice": 215, "pic": "http://p0.meituan.net/travel/c8cecbfe250a9eb18e9209d2f73a6b95259948.png", "shopid": 19177587, "lng": 114.5305, "lat": 22.46919, "dishtag": "自然风光", "shoppower": 35}, {"name": "甘坑古村", "address": "同富路甘坑古村", "avgprice": 37, "pic": "http://p0.meituan.net/travel/20ee141d3ca83298bb4b0feb1c42300789510.jpg", "shopid": 18238386, "lng": 114.10591, "lat": 22.654684, "dishtag": "名胜古迹", "shoppower": 40}, {"name": "凤凰古村", "address": "沙井镇福永街道凤凰社区凤凰村", "avgprice": -1, "pic": "http://p1.meituan.net/travel/dbae05a1af22d2f58dc85f5cf2b219da84028.jpg", "shopid": 59041691, "lng": 113.83963, "lat": 22.689768, "dishtag": "名胜古迹", "shoppower": 35}, {"name": "市民中心公园", "address": "深南大道市民中心广场前", "avgprice": -1, "pic": "http://p0.meituan.net/travel/4372dc2f8864f4b410021b4e78ebd33484841.jpg", "shopid": 9467812, "lng": 114.05809, "lat": 22.544504, "dishtag": "公园", "shoppower": 45}, {"name": "青瑞生态园", "address": "果园中心路38号", "avgprice": -1, "pic": "http://p1.meituan.net/hotel/c2508e409def5acb79713318abda63a9334774.jpg", "shopid": 67255120, "lng": 113.96161, "lat": 22.776558, "dishtag": "其他景点", "shoppower": 40}, {"name": "华侨城湿地公园", "address": "白石路8号欢乐海岸项目北区", "avgprice": -1, "pic": "http://p1.meituan.net/travel/5ef8c29407769ee239f88b5db822dd7587933.jpg", "shopid": 5463507, "lng": 113.99311, "lat": 22.52751, "dishtag": "自然风光", "shoppower": 40}, {"name": "马峦山郊野公园", "address": "坪山区横坪路", "avgprice": 49, "pic": "http://p1.meituan.net/hotel/0500cb6fb4c3f7bcac7c057657634bef188636.png", "shopid": 1705753, "lng": 114.34813, "lat": 22.65973, "dishtag": "自然风光", "shoppower": 35}, {"name": "玫瑰小镇", "address": "布新路12号宝资源科技园区", "avgprice": -1, "pic": "http://p0.meituan.net/travel/fe58e4febb3f525690591aa3d64d3fe329566.jpg", "shopid": 77443380, "lng": 114.481735, "lat": 22.586767, "dishtag": "其他景点", "shoppower": 35}, {"name": "海菲德小镇", "address": "大梅沙东部华侨城", "avgprice": -1, "pic": "http://p0.meituan.net/travel/1447fe75a9b0e7581788728ece881721499451.png", "shopid": 10786645, "lng": 114.30411, "lat": 22.608397, "dishtag": "观光街区", "shoppower": 35}, {"name": "深圳园山风景区", "address": "园山街道大康社区公园路", "avgprice": 61, "pic": "http://p0.meituan.net/travel/0a041392913147889b43ad710c956593375763.png", "shopid": 2256268, "lng": 114.239365, "lat": 22.641222, "dishtag": "自然风光", "shoppower": 35}, {"name": "中山公园", "address": "南山大道与北环大道", "avgprice": -1, "pic": "http://p0.meituan.net/travel/b704298c62aaaa624f431a867dba19e081401.jpg", "shopid": 67232165, "lng": 113.922935, "lat": 22.549355, "dishtag": "公园", "shoppower": 45}, {"name": "塘朗山公园", "address": "龙珠六路桃源村对面", "avgprice": -1, "pic": "http://p1.meituan.net/travel/37579ad91c681cb5ea6ba1c34fcd7439791386.png", "shopid": 4033591, "lng": 113.98218, "lat": 22.56392, "dishtag": "公园", "shoppower": 40}, {"name": "九龙山花仙谷", "address": "观澜九龙山高尔夫球会内", "avgprice": 79, "pic": "http://p0.meituan.net/travel/ea1aebebcf2c1657c5ba0d0feb06c738104202.jpg", "shopid": 67971944, "lng": 114.005615, "lat": 22.71328, "dishtag": "其他景点", "shoppower": 35}, {"name": "观澜湖生态体育园", "address": "高尔夫大道观澜湖新城对面", "avgprice": 49, "pic": "http://p1.meituan.net/travel/8d5048a7006c782ba595671720614287273066.jpg", "shopid": 57163400, "lng": 114.07614, "lat": 22.74037, "dishtag": "主题乐园", "shoppower": 35}, {"name": "春江游乐中山公园游乐场", "address": "南山大道3069号", "avgprice": 43, "pic": "http://p1.meituan.net/travel/f3837255c365ea9c6d2437fe49911325162776.jpg", "shopid": 69447383, "lng": 113.92206, "lat": 22.545586, "dishtag": "主题乐园", "shoppower": 40}, {"name": "风车小镇", "address": "人民南路2028号金光华广场", "avgprice": -1, "pic": "http://p1.meituan.net/travel/df75ddd97fb98374f5ed83a744cbca9792440.jpg", "shopid": 58856670, "lng": 114.12012, "lat": 22.53957, "dishtag": "游乐园", "shoppower": 35}, {"name": "深圳市中心公园", "address": "红荔路373号", "avgprice": -1, "pic": "http://p0.meituan.net/hotel/7367079d67c0ccc29c5d629ab39bde49350745.png", "shopid": 79608792, "lng": 114.078865, "lat": 22.547022, "dishtag": "公园", "shoppower": 45}, {"name": "华侨城生态广场", "address": "深南大道北侧", "avgprice": -1, "pic": "http://p0.meituan.net/hotel/38c586bc039f9b10b23d45ce8e8a614a446177.png", "shopid": 1705699, "lng": 113.98423, "lat": 22.540215, "dishtag": "其他景点", "shoppower": 45}, {"name": "文博宫", "address": "布吉西环路88号", "avgprice": -1, "pic": "http://p0.meituan.net/hotel/714bcda684f6ea4ec3c51ea66983df19290264.png", "shopid": 4530506, "lng": 114.10498, "lat": 22.6047, "dishtag": "名胜古迹", "shoppower": 35}, {"name": "小梅沙度假村", "address": "360省道小梅沙海滨旅游区", "avgprice": 54, "pic": "http://p0.meituan.net/travel/ddd2651d671534ca055c733329184a32452236.png", "shopid": 3335428, "lng": 114.28424, "lat": 22.58673, "dishtag": "其他景点", "shoppower": 35}, {"name": "欢笑乐园(华南城店)", "address": "平湖华南城游乐场", "avgprice": -1, "pic": "http://p0.meituan.net/travel/54182973ea8bceee25c763eb16fecad562411.jpg", "shopid": 32388541, "lng": 114.12586, "lat": 22.67649, "dishtag": "游乐园", "shoppower": 35}, {"name": "大梅沙帆船游艇俱乐部", "address": "盐梅路89号大梅沙湾游艇会", "avgprice": -1, "pic": "http://p0.meituan.net/hotel/66cfa06bc7676ed54bf24d8e20b6abbf671051.jpg", "shopid": 91015271, "lng": 114.31207, "lat": 22.598228, "dishtag": "其他景点", "shoppower": 35}, {"name": "滨海栈道", "address": "港西面滨海栈道", "avgprice": -1, "pic": "http://p1.meituan.net/travel/9b46ab22211529272bbe6c4269b943e6240638.png", "shopid": 23989139, "lng": 114.231636, "lat": 22.541231, "dishtag": "其他景点", "shoppower": 40}, {"name": "西乡公园", "address": "荔园路北侧附近", "avgprice": -1, "pic": "http://p1.meituan.net/hotel/6232441b602147def9d774841541c16b265590.png", "shopid": 4033630, "lng": 113.881256, "lat": 22.577065, "dishtag": "游乐园", "shoppower": 35}, {"name": "龙华公园", "address": "人民北路", "avgprice": -1, "pic": "http://p1.meituan.net/hotel/a69ebf18b71a0163be441af69e8bd751382688.png", "shopid": 4033585, "lng": 114.01701, "lat": 22.657192, "dishtag": "公园", "shoppower": 35}, {"name": "人民公园", "address": "人民北路", "avgprice": -1, "pic": "http://p0.meituan.net/hotel/c67ef7155876aab9571731d29c254c24541914.png", "shopid": 1705552, "lng": 114.11725, "lat": 22.553186, "dishtag": "公园", "shoppower": 45}, {"name": "银湖山郊野公园", "address": "彩田北路星河丹堤小区", "avgprice": -1, "pic": "http://p0.meituan.net/travel/ac29cfc08a54c7da79c0bed92a7f29a3175323.jpg", "shopid": 16671922, "lng": 114.06107, "lat": 22.590073, "dishtag": "公园", "shoppower": 35}, {"name": "丰盛町步行街", "address": "深南大道6019车公庙丰盛町地下阳光商业街", "avgprice": 94, "pic": "http://p1.meituan.net/travel/15e8b0a177cb58a01f81ee5396c9e1c4127433.jpg", "shopid": 4720631, "lng": 114.022446, "lat": 22.535028, "dishtag": "观光街区", "shoppower": 35}, {"name": "邓小平画像广场", "address": "深南大道与红岭路交汇处(荔枝公园东南角)", "avgprice": -1, "pic": "http://p0.meituan.net/travel/229168edc909e6ca717e775550e90d4053333.jpg", "shopid": 21111605, "lng": 114.10421, "lat": 22.541273, "dishtag": "其他景点", "shoppower": 45}, {"name": "记忆公园", "address": "笋岗西路与皇岗路东南交汇处笔架山公园以南", "avgprice": -1, "pic": "http://p0.meituan.net/travel/fadd44b9551f322032fe5389f926781688566.jpg", "shopid": 18323396, "lng": 114.08045, "lat": 22.56264, "dishtag": "公园", "shoppower": 35}, {"name": "罗湖口岸", "address": "人民南路罗湖丽人妇科医院旁", "avgprice": 11, "pic": "http://p1.meituan.net/hoteltdc/bfd840d87a948d2b11e048a8aaa7fca7174469.jpg", "shopid": 5238740, "lng": 114.11837, "lat": 22.52863, "dishtag": "其他景点", "shoppower": 40}, {"name": "福田红树林生态公园", "address": "新洲路与福荣路交叉口旁", "avgprice": -1, "pic": "http://p0.meituan.net/travel/74222233a968103d8db4ae8bfd8dbfde1816782.jpg", "shopid": 57173435, "lng": 114.04067, "lat": 22.51182, "dishtag": "公园", "shoppower": 35}, {"name": "香蜜湖中国娱乐城", "address": "深南大道西段香蜜湖度假村8号", "avgprice": -1, "pic": "http://p1.meituan.net/hotel/a1c3d5f971b25ddd56bef14f442eb97c431293.png", "shopid": 50441434, "lng": 114.035904, "lat": 22.540855, "dishtag": "游乐园", "shoppower": 35}, {"name": "观音山公园", "address": "大鹏观音山腰", "avgprice": -1, "pic": "http://p0.meituan.net/travel/a7e3b1478f3110b65842c4f9c91d6e3a110911.jpg", "shopid": 5661264, "lng": 114.47133, "lat": 22.591118, "dishtag": "公园", "shoppower": 35}, {"name": "东湖公园湖边烧烤场", "address": "罗沙路5026号东湖公园", "avgprice": -1, "pic": "http://p0.meituan.net/travel/e3e5a134b57577c6c3f8dc3966f59b39315839.jpg", "shopid": 41524426, "lng": 114.14727, "lat": 22.55364, "dishtag": "游乐园", "shoppower": 35}, {"name": "大鹏半岛", "address": "大亚湾西侧", "avgprice": -1, "pic": "http://p0.meituan.net/travel/d336449e886035ad386a2249b8730ff746424.jpg", "shopid": 1705720, "lng": 114.490585, "lat": 22.547028, "dishtag": "自然风光", "shoppower": 35}, {"name": "耶稣君王堂", "address": "上川路与留仙一路交口南50米", "avgprice": -1, "pic": "http://p0.meituan.net/travel/ff9da670240985d4797a59ada6aa42b2170266.jpg", "shopid": 16817021, "lng": 113.91091, "lat": 22.584497, "dishtag": "名胜古迹", "shoppower": 40}, {"name": "安迪斯乐儿亲子乐园", "address": "东园路台湾花园1楼", "avgprice": 35, "pic": "http://p1.meituan.net/apiback/f807dfe96512cd5a3c2916978b555ee3610851.jpg", "shopid": 6603170, "lng": 114.10254, "lat": 22.53725, "dishtag": "亲子乐园", "shoppower": 40}, {"name": "大梅沙游艇会", "address": "盐梅路89号", "avgprice": 961, "pic": "http://p1.meituan.net/travel/dfbe08bd0b70246d184bc04aa4b396a3164072.jpg", "shopid": 21217013, "lng": 114.312096, "lat": 22.598225, "dishtag": "水上娱乐", "shoppower": 40}, {"name": "大沙河公园", "address": "沙河东路8228号", "avgprice": -1, "pic": "http://p0.meituan.net/hotel/4f286963aae34b9ff3458407684dfa11380591.png", "shopid": 4103052, "lng": 113.96098, "lat": 22.557138, "dishtag": "公园", "shoppower": 40}, {"name": "东西涌", "address": "大鹏湾南澳半岛南", "avgprice": -1, "pic": "http://p1.meituan.net/travel/f6e6a9f0878850910d67aac6b05c158125272.jpg", "shopid": 17704276, "lng": 114.47308, "lat": 22.58484, "dishtag": "海滨沙滩", "shoppower": 40}, {"name": "蛇口价值工厂", "address": "海湾路8号", "avgprice": -1, "pic": "http://p1.meituan.net/hoteltdc/3e1cfd2b3f473d7f0eea200cbc06e5fc272062.jpg", "shopid": 58965716, "lng": 113.8953, "lat": 22.46716, "dishtag": "观光街区", "shoppower": 35}, {"name": "观澜古寺", "address": "沿河路,观澜古墟西南部", "avgprice": -1, "pic": "http://p1.meituan.net/travel/de0ad9d1423e4bf37cc4767323c78d66287261.png", "shopid": 10817330, "lng": 114.05366, "lat": 22.719398, "dishtag": "名胜古迹", "shoppower": 35}, {"name": "观澜湖新城润方冰雪城", "address": "观澜街道高尔夫大道8号观澜湖新城MH MALL 1层", "avgprice": 63, "pic": "http://p1.meituan.net/travel/c488e448714f97e3593faa56e2f8c54d58864.jpg", "shopid": 73586845, "lng": 114.07524, "lat": 22.721882, "dishtag": "游乐园", "shoppower": 20}, {"name": "求水山景区", "address": "布吉镇南岭村", "avgprice": 25, "pic": "http://p0.meituan.net/travel/9fe065d4cb5a38d6b30e24d53a5760bc390868.png", "shopid": 61586489, "lng": 114.14516, "lat": 22.597717, "dishtag": "自然风光", "shoppower": 35}, {"name": "乐仕堡儿童多元智能拓展中心", "address": "福华三路与金田路交汇处卓越世纪中心一楼", "avgprice": 141, "pic": "http://p0.meituan.net/travel/df872bd8f76e4e126120a5dccd9fa850194581.jpg", "shopid": 18296092, "lng": 114.06399, "lat": 22.531927, "dishtag": "游乐园", "shoppower": 35}, {"name": "东山寺", "address": "大鹏街道鹏飞路", "avgprice": -1, "pic": "http://p1.meituan.net/travel/4088288c6f5e7f5d75a26cb6b8e78e7f97346.jpg", "shopid": 9293275, "lng": 114.5195, "lat": 22.595901, "dishtag": "名胜古迹", "shoppower": 40}, {"name": "宝安公园", "address": "公园路宝安公园", "avgprice": -1, "pic": "http://p1.meituan.net/travel/c1ad897686be40237f20456aecbe30dd95914.jpg", "shopid": 4084702, "lng": 113.902664, "lat": 22.586197, "dishtag": "公园", "shoppower": 40}, {"name": "茶翁古镇", "address": "大梅沙东部华侨城", "avgprice": -1, "pic": "http://p1.meituan.net/travel/703472f10f83ef8cce2a0ce75021c8af104338.jpg", "shopid": 8847833, "lng": 114.28035, "lat": 22.63287, "dishtag": "其他景点", "shoppower": 35}, {"name": "外伶仃岛游(蛇口码头)", "address": "港湾三路蛇口邮轮中心", "avgprice": -1, "pic": "http://p1.meituan.net/travel/50d076cfe21290a8d6e966262fb9d54b229426.png", "shopid": 92711872, "lng": 113.91268, "lat": 22.46892, "dishtag": "城市观光", "shoppower": 35}, {"name": "天后宫", "address": "小南山.", "avgprice": -1, "pic": "http://p1.meituan.net/travel/4eb962c391b76d3947b3404e8605f69e73281.jpg", "shopid": 27831418, "lng": 114.528885, "lat": 22.465906, "dishtag": "名胜古迹", "shoppower": 35}, {"name": "西冲第一沙滩", "address": "西冲鹤薮村沙兰仔3号收费站入", "avgprice": -1, "pic": "http://p1.meituan.net/travel/99520b69b1957451fd8d4a15ade32e4a249746.png", "shopid": 37787602, "lng": 114.543686, "lat": 22.479591, "dishtag": "海滨沙滩", "shoppower": 35}, {"name": "碧海湾公园", "address": "银田路与新湖路交汇处北400米", "avgprice": -1, "pic": "http://p0.meituan.net/travel/23b1cbcf8971ef76727ac5189e64cf94103536.jpg", "shopid": 16120114, "lng": 113.85486, "lat": 22.58347, "dishtag": "公园", "shoppower": 35}, {"name": "荔香公园", "address": "南光路与南头街交界处", "avgprice": -1, "pic": "http://p1.meituan.net/hotel/7b51d06412496ad6cc99749cf8312057358775.png", "shopid": 2256346, "lng": 113.92952, "lat": 22.536106, "dishtag": "公园", "shoppower": 40}, {"name": "南澳", "address": "南澳镇", "avgprice": -1, "pic": "http://p1.meituan.net/travel/0f85e283066a9d3625a95969f51c4478231444.png", "shopid": 18517301, "lng": 114.491165, "lat": 22.534107, "dishtag": "海滨沙滩", "shoppower": 35}, {"name": "金沙湾海滨旅游度假区", "address": "大鹏新区金沙湾海滨度假区", "avgprice": 85, "pic": "http://p0.meituan.net/travel/0f76668602c27698c279b94ad42a6a8850328.jpg", "shopid": 5231628, "lng": 114.4579, "lat": 22.5705, "dishtag": "海滨沙滩", "shoppower": 35}, {"name": "梅林公园", "address": "梅亭路14号", "avgprice": -1, "pic": "http://p0.meituan.net/hotel/882473a3b71d01d39e544856e2d3ddfa380009.png", "shopid": 4033594, "lng": 114.03957, "lat": 22.570374, "dishtag": "公园", "shoppower": 40}, {"name": "民治女人街", "address": "通菜街", "avgprice": -1, "pic": "http://p1.meituan.net/travel/3d7d30ce5c421b7ab632370e4ef7e69d76537.jpg", "shopid": 16924121, "lng": 114.03343, "lat": 22.628496, "dishtag": "观光街区", "shoppower": 35}, {"name": "西丽366大街", "address": "留仙大道与新高路交口东10米", "avgprice": -1, "pic": "http://p1.meituan.net/travel/a9cabafad176705be6863993ed40067c93398.jpg", "shopid": 10791298, "lng": 113.95113, "lat": 22.580906, "dishtag": "观光街区", "shoppower": 35}, {"name": "普罗旺斯庄园", "address": "大鹏新区鹏飞路400号", "avgprice": -1, "pic": "http://p1.meituan.net/hotel/dacd092be6a555faa42190c06ddbe35e949973.jpg", "shopid": 74632367, "lng": 114.527565, "lat": 22.592983, "dishtag": "其他景点", "shoppower": 30}, {"name": "大鹏半岛东西冲海岸线", "address": "海滨北路大鹏半岛", "avgprice": -1, "pic": "http://p1.meituan.net/travel/37a85fee9cd77519bd2eaa10a7e4a394448100.png", "shopid": 37787866, "lng": 114.490486, "lat": 22.547623, "dishtag": "海滨沙滩", "shoppower": 40}, {"name": "文谷", "address": "文博路与S209清平高速出口交叉口西50米", "avgprice": -1, "pic": "http://p1.meituan.net/travel/a5c9e6bdff8ab8142331d74f275becd3271970.png", "shopid": 67386213, "lng": 114.100845, "lat": 22.602032, "dishtag": "名胜古迹", "shoppower": 35}, {"name": "沙鱼涌沙滩", "address": "土洋西路37号", "avgprice": -1, "pic": "http://p1.meituan.net/travel/0000084dc37618e36bf347021840eb29290743.png", "shopid": 69581885, "lng": 114.38974, "lat": 22.612593, "dishtag": "海滨沙滩", "shoppower": 40}, {"name": "春江游乐东湖公园游乐场", "address": "爱国路4006号东湖公园内东湖一街28号﹙东湖公园管理处斜对面﹚", "avgprice": 55, "pic": "http://p1.meituan.net/travel/56639854462dcbc78790084df5611472107669.jpg", "shopid": 69417949, "lng": 114.146996, "lat": 22.570698, "dishtag": "游乐园", "shoppower": 35}, {"name": "金色海岸游艇观光公司", "address": "盐田海鲜食街金色海岸码头", "avgprice": 85, "pic": "http://p0.meituan.net/travel/1cac51bfc2cc22ae2e6211e3ae74dff299569.jpg", "shopid": 6292002, "lng": 114.278366, "lat": 22.584684, "dishtag": "其他景点", "shoppower": 35}, {"name": "七娘山", "address": "南澳新大村东圩区", "avgprice": -1, "pic": "http://p1.meituan.net/travel/b22134a569214da0c16db54bf069367c62723.jpg", "shopid": 1705765, "lng": 114.54995, "lat": 22.52568, "dishtag": "自然风光", "shoppower": 35}, {"name": "北帝古庙", "address": "西乡镇真理街24号", "avgprice": -1, "pic": "http://p1.meituan.net/travel/44c217108c9431f4a3aca6a34de73d39342276.png", "shopid": 6059647, "lng": 113.87968, "lat": 22.575548, "dishtag": "名胜古迹", "shoppower": 35}, {"name": "光明滑草游乐园", "address": "碧水路光明滑草游乐园", "avgprice": 69, "pic": "http://p1.meituan.net/travel/e3ed85e784d68dbb20dd132597c10a60149514.jpg", "shopid": 58839549, "lng": 113.96361, "lat": 22.754078, "dishtag": "游乐园", "shoppower": 30}, {"name": "龙园", "address": "龙园路433号", "avgprice": -1, "pic": "http://p0.meituan.net/travel/47b6b84718744908291abb52d4778149301198.png", "shopid": 4034002, "lng": 114.26545, "lat": 22.732777, "dishtag": "公园", "shoppower": 35}, {"name": "东冲西冲", "address": "大鹏半岛最南端", "avgprice": 48, "pic": "http://p0.meituan.net/travel/62f23231a2316ce1779092bd10bee16b50443.jpg", "shopid": 58847997, "lng": 114.496666, "lat": 22.47464, "dishtag": "其他景点", "shoppower": 40}, {"name": "凤凰山国家矿山公园", "address": "凤凰大道凤凰山国家矿山公园", "avgprice": -1, "pic": "http://p0.meituan.net/travel/883396cf2f15d7832c9f65158b4d441f114881.jpg", "shopid": 6081572, "lng": 114.13701, "lat": 22.701109, "dishtag": "自然风光", "shoppower": 35}, {"name": "欧洲印象", "address": "深南大道9037-6号", "avgprice": -1, "pic": "http://p1.meituan.net/hotel/689e2984c5198a06683c11a73e5b7b32414565.png", "shopid": 16942049, "lng": 113.97302, "lat": 22.53592, "dishtag": "观光街区", "shoppower": 35}, {"name": "四海公园", "address": "公园路", "avgprice": -1, "pic": "http://p0.meituan.net/hotel/1f56b0ce173cd1a0c3b096027f608a09465402.png", "shopid": 2547559, "lng": 113.92736, "lat": 22.495722, "dishtag": "游乐园", "shoppower": 35}, {"name": "南澳西冲1号沙滩", "address": "西冲沙滩金海度假中心内", "avgprice": -1, "pic": "http://p1.meituan.net/hotel/e4e4a94068ca132ec118140564ac5ef9195590.png", "shopid": 27269200, "lng": 114.53038, "lat": 22.46863, "dishtag": "海滨沙滩", "shoppower": 35}, {"name": "天后博物馆", "address": "赤湾六路9号", "avgprice": 16, "pic": "http://p1.meituan.net/travel/cb470e0a0aae649d68e3d1c96e2f874a113562.jpg", "shopid": 4034008, "lng": 113.89241, "lat": 22.478088, "dishtag": "名胜古迹", "shoppower": 35}, {"name": "天空农庄(南山茂业店)", "address": "海德二道茂业百货9楼", "avgprice": -1, "pic": "http://qcloud.dpfile.com/pc/gx1apMcKOeqPgaU2NOoL5Sic_7RbJ8eiYJA9i0eS1pz1BE-kMOu6Xik-Cr0iSjXVtOnd3gXQdDYlAqlaVaAFeZ0rYYyiRo_EhzufqWWjTjs.jpg", "shopid": 67963141, "lng": 113.93039, "lat": 22.519487, "dishtag": "亲子乐园", "shoppower": 30}, {"name": "龙城公园", "address": "清林路与爱心路交界处", "avgprice": -1, "pic": "http://p0.meituan.net/travel/85a371d31865965839d2e9042abf50a8140825.jpg", "shopid": 4033636, "lng": 114.22608, "lat": 22.712439, "dishtag": "公园", "shoppower": 35}, {"name": "深圳人的一天雕塑公园", "address": "红荔路1050-1052号", "avgprice": -1, "pic": "http://p0.meituan.net/hotel/f478fc25a746da11a7840c58f0fe7fdc341046.png", "shopid": 91045109, "lng": 114.101524, "lat": 22.54974, "dishtag": "公园", "shoppower": 35}, {"name": "宋少帝陵", "address": "招商街道赤湾村少帝路", "avgprice": -1, "pic": "http://p1.meituan.net/travel/0930067b5050145bbdc3b8ced4bf53f9129644.jpg", "shopid": 4290995, "lng": 113.88648, "lat": 22.480043, "dishtag": "名胜古迹", "shoppower": 35}, {"name": "福田体育公园", "address": "福强路", "avgprice": -1, "pic": "http://p1.meituan.net/hotel/e281b40ae9c97fbef25db2a12c9898c1434611.png", "shopid": 4033603, "lng": 114.03608, "lat": 22.526026, "dishtag": "公园", "shoppower": 40}, {"name": "龙之谷游乐园", "address": "石岩街道龙腾路13号龙之谷游乐园", "avgprice": -1, "pic": "http://p1.meituan.net/hotel/c78bb624fa117a779c085ca5b72e09311028320.png", "shopid": 93331218, "lng": 113.94576, "lat": 22.66657, "dishtag": "游乐园", "shoppower": 35}, {"name": "南头古城", "address": "深南大道3109号中山公园南侧", "avgprice": -1, "pic": "http://p0.meituan.net/travel/85adb42df01ca6da6450992b8cb9c11f420483.png", "shopid": 1705762, "lng": 113.920105, "lat": 22.540714, "dishtag": "名胜古迹", "shoppower": 30}, {"name": "欢乐宝宝儿童主题乐园", "address": "保利一号数码广场B2-39", "avgprice": -1, "pic": "http://p1.meituan.net/travel/a7705805603be159b7beb7981d204b39166992.jpg", "shopid": 58859845, "lng": 113.9386, "lat": 22.517147, "dishtag": "游乐园", "shoppower": 35}, {"name": "梦幻地带游乐园(沙井京基百纳店)", "address": "沙井京基百纳购物广场3楼", "avgprice": 36, "pic": "http://p0.meituan.net/travel/629d3a8e2fc22ecd0b3e32bc5d33c8ee432218.jpg", "shopid": 15928417, "lng": 113.806015, "lat": 22.728071, "dishtag": "游乐园", "shoppower": 40}, {"name": "欢乐反斗城", "address": "坂田街道雅园路手造文化街二期综合楼二楼", "avgprice": -1, "pic": "http://p0.meituan.net/travel/d99307e88dd003b05c6b4903a45813d988185.jpg", "shopid": 13768695, "lng": 114.06361, "lat": 22.612503, "dishtag": "游乐园", "shoppower": 35}, {"name": "金色海岸", "address": "盐田海鲜街金色海岸", "avgprice": -1, "pic": "http://p0.meituan.net/travel/e2da9e7c04ffbbdcb7ad00035c5593e135223.jpg", "shopid": 58571130, "lng": 114.27833, "lat": 22.584707, "dishtag": "自然风光", "shoppower": 40}, {"name": "古炮台", "address": "左炮台路古炮台景区", "avgprice": -1, "pic": "http://p1.meituan.net/hotel/55bd938ee0075b95793b4b27118e4939446486.png", "shopid": 10790782, "lng": 113.898094, "lat": 22.474258, "dishtag": "名胜古迹", "shoppower": 35}, {"name": "基督教深圳堂", "address": "梅林路126号", "avgprice": -1, "pic": "http://p1.meituan.net/travel/838ceb08c0be49c076f290002a30e29d612716.jpg", "shopid": 10792936, "lng": 114.04695, "lat": 22.56832, "dishtag": "名胜古迹", "shoppower": 40}, {"name": "香蜜湖群众体育公园", "address": "红荔西路香蜜湖娱乐城内", "avgprice": -1, "pic": "http://p1.meituan.net/travel/8f75671cfe1c0f9051b3c5b5021b8bdf293024.png", "shopid": 58966233, "lng": 114.02984, "lat": 22.545267, "dishtag": "游乐园", "shoppower": 35}, {"name": "月亮湾公园", "address": "前海路月亮湾公园", "avgprice": -1, "pic": "http://p0.meituan.net/hotel/b0b4a791270e4320fed5d8bf03d68fab595500.png", "shopid": 4620276, "lng": 113.89916, "lat": 22.500416, "dishtag": "公园", "shoppower": 35}, {"name": "南门一坊美食观光夜市", "address": "粤海街道东滨路", "avgprice": -1, "pic": "http://p1.meituan.net/hoteltdc/8bd406fbd99fec5ed2cfb61450387647435753.jpg", "shopid": 76721755, "lng": 113.92769, "lat": 22.506159, "dishtag": "观光街区", "shoppower": 35}, {"name": "平峦山公园", "address": "西乡前进二路宝田三路口", "avgprice": -1, "pic": "http://p0.meituan.net/travel/dad6d444d9a073b58868ba39f36203fb84493.jpg", "shopid": 4524024, "lng": 113.87619, "lat": 22.60826, "dishtag": "自然风光", "shoppower": 35}, {"name": "黄金海岸沙滩", "address": "西涌一号收费站上行50米", "avgprice": -1, "pic": "http://p1.meituan.net/travel/74b058eeaf08cac4deb67bd47c58b670360270.png", "shopid": 21694013, "lng": 114.543686, "lat": 22.479565, "dishtag": "海滨沙滩", "shoppower": 35}, {"name": "欢乐干线", "address": "华侨城侨城西街欢乐谷内", "avgprice": -1, "pic": "http://p0.meituan.net/travel/4ab955bb867958a6004e3bbdb7a77db8105845.jpg", "shopid": 16275967, "lng": 113.979866, "lat": 22.539644, "dishtag": "城市观光", "shoppower": 30}, {"name": "西冲仙人掌沙滩", "address": "大鹏新区西冲2号沙滩收费口", "avgprice": -1, "pic": "http://p0.meituan.net/travel/786b15e14faea56e146a78b29f7a052f182276.png", "shopid": 67330315, "lng": 114.53698, "lat": 22.475481, "dishtag": "海滨沙滩", "shoppower": 35}, {"name": "东航游轮有限公司", "address": "蛇口游轮中心", "avgprice": 207, "pic": "http://p0.meituan.net/hotel/599b0962d362a597ad9088853e6a12af213039.png", "shopid": 4280966, "lng": 113.91269, "lat": 22.46892, "dishtag": "城市观光", "shoppower": 35}, {"name": "龙城广场", "address": "中心城龙翔大道", "avgprice": -1, "pic": "http://p0.meituan.net/hotel/a800240c4869ca2dc429d6a970ff4d7b317748.png", "shopid": 4713415, "lng": 114.24847, "lat": 22.71939, "dishtag": "观光街区", "shoppower": 35}, {"name": "郑氏宗祠", "address": "科润路郑氏宗祠", "avgprice": -1, "pic": "http://p0.meituan.net/hotel/5e600a26e3df46004d04407ff72963af414147.png", "shopid": 6059654, "lng": 113.95235, "lat": 22.54171, "dishtag": "名胜古迹", "shoppower": 35}, {"name": "易租游艇俱乐部", "address": "南澳街道东山社区七星湾游艇会M桥", "avgprice": -1, "pic": "http://p0.meituan.net/hoteltdc/b677db601c5d4345f83aba78b69d5384315960.jpg", "shopid": 96141875, "lng": 114.53929, "lat": 22.5622, "dishtag": "其他景点", "shoppower": 35}, {"name": "关帝庙", "address": "深南大道与中山南街交叉口", "avgprice": -1, "pic": "http://p0.meituan.net/travel/737baa4440ac13973bb1ff756b7a8514223629.jpg", "shopid": 10788173, "lng": 113.92079, "lat": 22.540705, "dishtag": "名胜古迹", "shoppower": 35}, {"name": "布吉公园", "address": "金龙路21号", "avgprice": -1, "pic": "http://p1.meituan.net/travel/20e08359272f0165b78dea1236c5ffa762684.jpg", "shopid": 2256343, "lng": 114.11866, "lat": 22.60411, "dishtag": "公园", "shoppower": 35}, {"name": "澳门观光塔", "address": "人民南路新安大厦17楼", "avgprice": -1, "pic": "http://p1.meituan.net/hoteltdc/ecf8650d17a205f64abe851e24b3ca31367321.png", "shopid": 21928009, "lng": 114.1121, "lat": 22.53556, "dishtag": "其他景点", "shoppower": 35}, {"name": "大亚湾核电站", "address": "大鹏镇大亚湾核电站", "avgprice": -1, "pic": "http://p0.meituan.net/travel/265651bb87a17572f333c0d70c6b4eb068159.jpg", "shopid": 1705690, "lng": 114.544426, "lat": 22.59162, "dishtag": "名胜古迹", "shoppower": 35}, {"name": "大鹏卡丁车游乐园", "address": "大鹏新区鹏飞路400号农科生态园", "avgprice": -1, "pic": "http://p0.meituan.net/hotel/61cc88251c6801a6e5c317419d884695425327.png", "shopid": 90324343, "lng": 114.52754, "lat": 22.593016, "dishtag": "游乐园", "shoppower": 30}, {"name": "梅园", "address": "北环大道与北环香蜜立交交叉口北100米", "avgprice": -1, "pic": "http://p0.meituan.net/travel/30b7b4315acf350adff4be144a2afadb214711.jpg", "shopid": 57980948, "lng": 114.01468, "lat": 22.556623, "dishtag": "自然风光", "shoppower": 35}, {"name": "湾观桥公园", "address": "深圳湾公园内", "avgprice": -1, "pic": "http://p0.meituan.net/travel/4f9a375cb5ba42c5ad62ece6f5f37d4f222846.png", "shopid": 69564806, "lng": 113.95271, "lat": 22.488213, "dishtag": "自然风光", "shoppower": 40}, {"name": "弘源寺", "address": "石岩湖", "avgprice": -1, "pic": "http://p1.meituan.net/travel/8614f216144ee95ff984617337387968185886.jpg", "shopid": 6059657, "lng": 113.911354, "lat": 22.705933, "dishtag": "名胜古迹", "shoppower": 35}, {"name": "深圳电视塔", "address": "茂仔村梧桐山景区内", "avgprice": -1, "pic": "http://p0.meituan.net/travel/5e38a058590877494c34eeeb1dfeafb679427.jpg", "shopid": 5664315, "lng": 114.19362, "lat": 22.568274, "dishtag": "名胜古迹", "shoppower": 35}, {"name": "铁仔山公园", "address": "西城工业城内", "avgprice": -1, "pic": "http://p1.meituan.net/travel/edd6dd766cfc95e2ff1dc406993ff091142964.jpg", "shopid": 4525336, "lng": 113.86359, "lat": 22.592306, "dishtag": "公园", "shoppower": 35}, {"name": "乐悠游儿童乐园(新洲店)", "address": "新洲三街家乐福二楼", "avgprice": -1, "pic": "http://p0.meituan.net/wedding/64ba3679f0165cafdcfa80f6d6a5aeec122561.jpg", "shopid": 15990205, "lng": 114.043846, "lat": 22.52205, "dishtag": "亲子乐园", "shoppower": 35}, {"name": "罗湖创意文化广场", "address": "南极路6号", "avgprice": -1, "pic": "http://p0.meituan.net/travel/42cde747985d0886eaba191aa5233ffe66728.jpg", "shopid": 10822507, "lng": 114.12669, "lat": 22.54399, "dishtag": "其他景点", "shoppower": 35}, {"name": "皇岗公园", "address": "益田路2002号", "avgprice": -1, "pic": "http://p0.meituan.net/hotel/921fab736c8ef5f21cd67eafac422b00610337.png", "shopid": 2256316, "lng": 114.05803, "lat": 22.517656, "dishtag": "游乐园", "shoppower": 35}, {"name": "溪涌悦榕湾工人度假村", "address": "深葵公路1085号", "avgprice": -1, "pic": "http://p1.meituan.net/hotel/6f206df0e8a9c26116f2d2ee83e62f96247802.png", "shopid": 17851155, "lng": 114.36126, "lat": 22.607222, "dishtag": "海滨沙滩", "shoppower": 35}, {"name": "蛇口港珠海游轮", "address": "港湾大道1号蛇口港", "avgprice": 119, "pic": "http://p1.meituan.net/travel/c77e67de309ef221c2eb90e96e6d8c36333683.jpg", "shopid": 66361961, "lng": 113.91325, "lat": 22.475784, "dishtag": "城市观光", "shoppower": 35}, {"name": "灵芝公园", "address": "前进一路80号", "avgprice": -1, "pic": "http://p0.meituan.net/hotel/c798a88e92c6f214f63353d72018c7c0414845.png", "shopid": 3648013, "lng": 113.90686, "lat": 22.568, "dishtag": "公园", "shoppower": 35}, {"name": "119消防主题公园", "address": "嘉宾路39号", "avgprice": -1, "pic": "http://p0.meituan.net/travel/6aa38c0ebd73b536491727e08e5e67b6360082.png", "shopid": 67658869, "lng": 114.11213, "lat": 22.538994, "dishtag": "主题乐园", "shoppower": 35}, {"name": "龙华文化广场", "address": "龙华东环二路181号附近", "avgprice": -1, "pic": "http://p0.meituan.net/travel/4fda356147b798367ea7a3e2afa74a8f70634.jpg", "shopid": 10814781, "lng": 114.03916, "lat": 22.654966, "dishtag": "其他景点", "shoppower": 35}, {"name": "深圳湾游艇会", "address": "望海路1199号", "avgprice": -1, "pic": "http://p0.meituan.net/travel/866708d21f326c57726e9d4212fe301837044.jpg", "shopid": 68238418, "lng": 113.91621, "lat": 22.478481, "dishtag": "其他景点", "shoppower": 35}, {"name": "东涌海滩", "address": "南澳镇东冲村", "avgprice": 58, "pic": "http://p0.meituan.net/travel/517e2f4a82b96ff00fe4f9ab220255ab415890.png", "shopid": 2307949, "lng": 114.58096, "lat": 22.49083, "dishtag": "海滨沙滩", "shoppower": 35}, {"name": "凤岩古庙", "address": "凤凰山森林公园内", "avgprice": -1, "pic": "http://p0.meituan.net/travel/2b8ac4ad98679035fcaa2c88beb43afb89485.jpg", "shopid": 4515667, "lng": 113.85383, "lat": 22.676083, "dishtag": "名胜古迹", "shoppower": 35}, {"name": "金帆海世界游艇俱乐部", "address": "盐梅路89号大梅沙湾游艇会", "avgprice": -1, "pic": "http://p1.meituan.net/hotel/1b4b2cc2f03bbbcaf1ba95b22d380277293498.png", "shopid": 72737431, "lng": 114.31229, "lat": 22.598146, "dishtag": "其他景点", "shoppower": 35}, {"name": "坝光海滩", "address": "葵涌镇坝光村东面", "avgprice": -1, "pic": "http://p0.meituan.net/travel/0dc9ed24c17145069beb2238aeb253f8416209.png", "shopid": 5322271, "lng": 114.50348, "lat": 22.645006, "dishtag": "海滨沙滩", "shoppower": 35}, {"name": "赛格观光", "address": "华强北路1015号赛格广场71-72楼", "avgprice": -1, "pic": "http://p0.meituan.net/hotel/df912b1addad338d834a2e3606eb5310306470.png", "shopid": 58920963, "lng": 114.08752, "lat": 22.541367, "dishtag": "其他景点", "shoppower": 35}, {"name": "乐乐堂儿童乐园(龙华店)", "address": "龙华中环一路与建设路交汇崇尚百货二楼", "avgprice": -1, "pic": "http://p1.meituan.net/travel/0a18df573d76a7b06eb6c5465a4f4a4757847.jpg", "shopid": 6199139, "lng": 114.030754, "lat": 22.652035, "dishtag": "游乐园", "shoppower": 35}, {"name": "澳洲皇后庄园", "address": "西乡街道宝安大道与宾隆路交汇处招商果岭119号", "avgprice": -1, "pic": "http://p1.meituan.net/travel/1f13df23e50730480123413c46a2458070590.jpg", "shopid": 23450867, "lng": 113.857086, "lat": 22.585373, "dishtag": "自然风光", "shoppower": 35}, {"name": "红花山公园", "address": "光明新区红花山公园", "avgprice": -1, "pic": "http://p0.meituan.net/travel/fe281b376e86ef0bec7bb337228b800687606.jpg", "shopid": 4033639, "lng": 113.901184, "lat": 22.780787, "dishtag": "公园", "shoppower": 35}, {"name": "红树湾公园", "address": "福田红树湾公园", "avgprice": -1, "pic": "http://qcloud.dpfile.com/pc/8w4H_FLp-dONpzsiqKTWdsytckPyT1v22lml2m15EplEmrSPPMC-lQX57yKIe7sjtOnd3gXQdDYlAqlaVaAFeZ0rYYyiRo_EhzufqWWjTjs.jpg", "shopid": 93609703, "lng": 113.92639, "lat": 22.488785, "dishtag": "城市观光", "shoppower": 35}, {"name": "松岗公园", "address": "松岗麒麟山松岗公园", "avgprice": -1, "pic": "http://p1.meituan.net/travel/7c395f5ddc2ac5d4c0151c961274a4e6100632.jpg", "shopid": 5263993, "lng": 113.848595, "lat": 22.784077, "dishtag": "公园", "shoppower": 35}, {"name": "德逸公园", "address": "布龙路辅路与梅龙路交叉口旁", "avgprice": -1, "pic": "http://p1.meituan.net/travel/db141d6cda554b22c70f8476baa7b6be185603.jpg", "shopid": 57471202, "lng": 114.02923, "lat": 22.633003, "dishtag": "公园", "shoppower": 35}, {"name": "翠竹公园", "address": "翠竹路1078号", "avgprice": -1, "pic": "http://p1.meituan.net/travel/e0d96f50481a6d0d87c0a65d765ff6a1104965.jpg", "shopid": 2256325, "lng": 114.13202, "lat": 22.563267, "dishtag": "游乐园", "shoppower": 35}, {"name": "深圳市野生动物园海狮表演馆", "address": "沁园路1231号", "avgprice": -1, "pic": "http://qcloud.dpfile.com/pc/SrPg2LtQUN-qY1BRc9O0-1jZ95Quiz6QblPo90hYk0U-6nbDDJnfJwPyRaeIkFSNtOnd3gXQdDYlAqlaVaAFeZ0rYYyiRo_EhzufqWWjTjs.jpg", "shopid": 15626429, "lng": 113.97, "lat": 22.59891, "dishtag": "公园", "shoppower": 35}, {"name": "海山公园", "address": "沙头角镇庙公岭", "avgprice": -1, "pic": "http://p1.meituan.net/hotel/1be0d77bc92c07ed862512a293c4e825478185.png", "shopid": 2256337, "lng": 114.24019, "lat": 22.559584, "dishtag": "自然风光", "shoppower": 35}, {"name": "鹏城村", "address": "鹏飞路", "avgprice": 75, "pic": "http://p0.meituan.net/travel/f043edcd3422c7306e2f79b77746334d390446.png", "shopid": 10801574, "lng": 114.51347, "lat": 22.594666, "dishtag": "名胜古迹", "shoppower": 35}, {"name": "松坪山公园", "address": "乌石头路9号", "avgprice": -1, "pic": "http://p0.meituan.net/travel/b2e6749651addba0b0e3300bd593583551623.jpg", "shopid": 4033606, "lng": 113.949196, "lat": 22.55812, "dishtag": "公园", "shoppower": 35}, {"name": "观澜人民公园", "address": "公园路4号", "avgprice": -1, "pic": "http://p0.meituan.net/travel/e07e40693d9fe44d5a1e5f2b3245170f38646.jpg", "shopid": 16215098, "lng": 114.04463, "lat": 22.716413, "dishtag": "公园", "shoppower": 35}, {"name": "南澳水头沙海滨浴场", "address": "南澳街道水头沙海滨1路", "avgprice": -1, "pic": "http://p0.meituan.net/travel/0162ddd1f915f089efd97a32a88111f3204045.png", "shopid": 67723851, "lng": 114.48295, "lat": 22.546396, "dishtag": "海滨沙滩", "shoppower": 35}, {"name": "东冲", "address": "南澳镇东冲", "avgprice": -1, "pic": "http://p0.meituan.net/travel/75e3eb4fc548634161388bb0755c1d8e50418.jpg", "shopid": 27551708, "lng": 114.58343, "lat": 22.487906, "dishtag": "海滨沙滩", "shoppower": 35}, {"name": "南澳海贝湾潜水基地", "address": "大鹏南澳镇海滨南路33号", "avgprice": -1, "pic": "http://p0.meituan.net/travel/eacba137d631735acccc0cf835ee170979301.jpg", "shopid": 23570345, "lng": 114.485214, "lat": 22.540066, "dishtag": "海上项目", "shoppower": 35}, {"name": "荔林公园", "address": "东滨路前海路口荔林公园", "avgprice": -1, "pic": "http://p1.meituan.net/hotel/9f997223eae5f86970190624d666bb59426100.png", "shopid": 4620292, "lng": 113.91056, "lat": 22.507723, "dishtag": "公园", "shoppower": 35}, {"name": "赤湾左炮台", "address": "赤湾鹰嘴山", "avgprice": -1, "pic": "http://p0.meituan.net/travel/18cca284815b75438ba51cc6a38fa1ff211715.jpg", "shopid": 3466156, "lng": 113.8911, "lat": 22.468233, "dishtag": "名胜古迹", "shoppower": 35}, {"name": "横岗人民公园", "address": "深惠路段828号", "avgprice": -1, "pic": "http://p1.meituan.net/hotel/2de54564afd3ed4ab77e22c273ae431f272947.png", "shopid": 4033666, "lng": 114.20844, "lat": 22.64731, "dishtag": "公园", "shoppower": 35}, {"name": "西冲汪洋潜水俱乐部", "address": "南澳镇西涌2号浴场仙人掌沙滩", "avgprice": -1, "pic": "http://p0.meituan.net/travel/ea9943ca3a8b096c1966474b95b8d3a848425.jpg", "shopid": 17992044, "lng": 114.5355, "lat": 22.475067, "dishtag": "其他景点", "shoppower": 35}, {"name": "背仔角沙滩", "address": "深葵公路1097号", "avgprice": -1, "pic": "http://p0.meituan.net/travel/adbf77a37edde2ebab66f76991ae2080446968.jpg", "shopid": 66346472, "lng": 114.35045, "lat": 22.598248, "dishtag": "海滨沙滩", "shoppower": 30}, {"name": "艺象iD TOWN国际艺术区", "address": "葵鹏路106号", "avgprice": -1, "pic": "http://p0.meituan.net/travel/34dd437f300e4c436390b734e0968af8207691.jpg", "shopid": 14901722, "lng": 114.43145, "lat": 22.60786, "dishtag": "观光街区", "shoppower": 35}, {"name": "东江纵队司令部旧址", "address": "葵涌镇土洋村海景路2号", "avgprice": -1, "pic": "http://p0.meituan.net/travel/3173b54a92d1cf9eec3e0b4a86405b8075437.jpg", "shopid": 1705696, "lng": 114.409134, "lat": 22.614262, "dishtag": "名胜古迹", "shoppower": 35}, {"name": "大鹏湾游艇俱乐部", "address": "大鹏镇大澳湾山庄内", "avgprice": -1, "pic": "http://p0.meituan.net/travel/8d473006555401dee6680c061f0d9e1f15743.jpg", "shopid": 21915986, "lng": 114.46565, "lat": 22.562038, "dishtag": "其他景点", "shoppower": 35}, {"name": "冲浪者俱乐部", "address": "大鹏较场尾冲浪者俱乐部", "avgprice": -1, "pic": "http://p0.meituan.net/hotel/ce0608a49032495c550f66f7bd107693743826.png", "shopid": 67010453, "lng": 114.50968, "lat": 22.588179, "dishtag": "水上娱乐", "shoppower": 35}, {"name": "黄金海岸游艇", "address": "大梅沙心海伽蓝1楼", "avgprice": -1, "pic": "http://p0.meituan.net/hotel/beae197e2ec67d274154af336ee011b2222894.png", "shopid": 6189310, "lng": 114.30911, "lat": 22.60026, "dishtag": "其他景点", "shoppower": 35}, {"name": "深圳阿罗哈海滩俱乐部", "address": "大鹏新区鹏城较场尾较三西八巷七号阿罗哈海滩俱乐部", "avgprice": -1, "pic": "http://p0.meituan.net/hotel/b8e8c35cfd62e0f7e34ad47b0db80622238221.png", "shopid": 66767653, "lng": 114.50869, "lat": 22.586487, "dishtag": "水上娱乐", "shoppower": 35}, {"name": "坑梓公园", "address": "丹梓大道", "avgprice": -1, "pic": "http://p0.meituan.net/travel/38055b9b6f8cda9958f28a4d48968c6e70557.jpg", "shopid": 5937707, "lng": 114.377335, "lat": 22.734875, "dishtag": "公园", "shoppower": 35}, {"name": "银湖骑马场", "address": "泥岗路", "avgprice": -1, "pic": "http://p1.meituan.net/travel/e6c796b95072687cfcadd50b670dcd50205303.jpg", "shopid": 5148660, "lng": 114.07968, "lat": 22.58238, "dishtag": "主题乐园", "shoppower": 30}, {"name": "乐童游乐园", "address": "布吉镇金坑北路1号", "avgprice": -1, "pic": "http://p1.meituan.net/travel/95b2de2f3ad917dca6b183aa49799592313485.png", "shopid": 23344279, "lng": 114.14685, "lat": 22.61679, "dishtag": "游乐园", "shoppower": 35}, {"name": "黄思铭公世祠", "address": "大围路下沙文化广场内", "avgprice": -1, "pic": "http://p1.meituan.net/travel/78ad893cbda69ea2ee263f771c554f36778601.png", "shopid": 6059661, "lng": 114.025826, "lat": 22.526087, "dishtag": "名胜古迹", "shoppower": 35}, {"name": "坪山公园", "address": "坪山镇东纵路", "avgprice": -1, "pic": "http://p1.meituan.net/travel/ea152bddb7b725ecd7e085f40e49377c199043.png", "shopid": 5537676, "lng": 114.343994, "lat": 22.687855, "dishtag": "公园", "shoppower": 35}, {"name": "坂田手造文化街", "address": "坂田街道雅园路", "avgprice": -1, "pic": "http://p1.meituan.net/travel/8bfefd5d27f4483aa59a75990fdb87d2595193.png", "shopid": 5455560, "lng": 114.064644, "lat": 22.616816, "dishtag": "观光街区", "shoppower": 30}, {"name": "自拍公园", "address": "布吉德兴城15栋401室", "avgprice": -1, "pic": "http://p0.meituan.net/hotel/7608b5fa9d00036ec87b513d35af893f155396.png", "shopid": 15953655, "lng": 114.113495, "lat": 22.608711, "dishtag": "公园", "shoppower": 30}, {"name": "大顶岭公园", "address": "光明农场内", "avgprice": -1, "pic": "http://p1.meituan.net/travel/91e6ab179862d7802f2c963c428e53db330537.png", "shopid": 5144094, "lng": 113.96518, "lat": 22.756264, "dishtag": "公园", "shoppower": 35}, {"name": "深圳北贤航海俱乐部", "address": "大鹏新区南澳街道东山村62-1号", "avgprice": -1, "pic": "http://p1.meituan.net/joymerchant/2532381299908888496.jpg", "shopid": 80945206, "lng": 114.53053, "lat": 22.556591, "dishtag": "更多休闲娱乐", "shoppower": 40}, {"name": "御河堤商业街", "address": "红岭南路", "avgprice": -1, "pic": "http://p0.meituan.net/travel/1a75efbb4d01b30e4372836e34338c4341836.jpg", "shopid": 16922053, "lng": 114.10343, "lat": 22.538334, "dishtag": "观光街区", "shoppower": 35}, {"name": "清真寺", "address": "梅林路7号", "avgprice": -1, "pic": "http://p0.meituan.net/travel/5c47b2101e58958b621659df6eb557ef31303.jpg", "shopid": 6059644, "lng": 114.070404, "lat": 22.568188, "dishtag": "名胜古迹", "shoppower": 40}, {"name": "车龙城(甲岸路店)", "address": "宝城42区甲岸路豪城馨庭居2-3号铺", "avgprice": -1, "pic": "http://p0.meituan.net/travel/29f8e1ae35f3a31be5f3695ce94cd822260966.qccr", "shopid": 59403937, "lng": 113.89748, "lat": 22.553434, "dishtag": "主题乐园", "shoppower": 40}, {"name": "罗湖文化公园", "address": "湖贝路15号之一", "avgprice": -1, "pic": "http://p1.meituan.net/hotel/de8a5298845fd3f5c9156bfb2b8d5bf5294949.png", "shopid": 1705555, "lng": 114.126686, "lat": 22.54588, "dishtag": "公园", "shoppower": 35}, {"name": "南澳七星湾游艇会", "address": "海碓路", "avgprice": -1, "pic": "http://qcloud.dpfile.com/pc/1LODbNcKntAGUfNJW86dUIkhMC7Ysx_RaPzO3J601M-RAh5gxGlq1-r7UrEVVqFxtOnd3gXQdDYlAqlaVaAFeZ0rYYyiRo_EhzufqWWjTjs.jpg", "shopid": 96263405, "lng": 114.53922, "lat": 22.566261, "dishtag": "其他景点", "shoppower": 40}, {"name": "天主堂深圳圣安多尼堂", "address": "农林路", "avgprice": -1, "pic": "http://p1.meituan.net/travel/635abffd7f44917aaaf2a332ab6d7ab288495.jpg", "shopid": 10792967, "lng": 114.01457, "lat": 22.544434, "dishtag": "名胜古迹", "shoppower": 35}, {"name": "侨香公园", "address": "泽田路2号", "avgprice": -1, "pic": "http://p1.meituan.net/travel/dea5f761d91c56c186f336abf1e0e78d339942.jpg", "shopid": 59251655, "lng": 114.01741, "lat": 22.55173, "dishtag": "公园", "shoppower": 35}, {"name": "大鹏游艇会帆船俱乐部", "address": "大鹏新东路12号", "avgprice": -1, "pic": "http://qcloud.dpfile.com/pc/XhHgmRfPE_oB3tAvlJ0XmHRbbntaJv2wSqOpFR8V94Ggc9RJlnFycIAKPeAVvXnMtOnd3gXQdDYlAqlaVaAFeZ0rYYyiRo_EhzufqWWjTjs.jpg", "shopid": 77446193, "lng": 114.55083, "lat": 22.549788, "dishtag": "水上娱乐", "shoppower": 40}, {"name": "梅林山公园", "address": "梅林一村后山", "avgprice": -1, "pic": "http://p0.meituan.net/travel/1a3b92a202bd1e994f766046c2db5bfd59531.jpg", "shopid": 16992739, "lng": 114.03301, "lat": 22.562246, "dishtag": "公园", "shoppower": 40}, {"name": "海滨栈道健身广场", "address": "海景路", "avgprice": -1, "pic": "http://p1.meituan.net/travel/73ae3922f2c1a282fceba67ba352b0f983516.jpg", "shopid": 10786538, "lng": 114.23773, "lat": 22.546455, "dishtag": "公园", "shoppower": 40}, {"name": "罗湖区文化馆", "address": "太白路2009路", "avgprice": -1, "pic": "http://p1.meituan.net/travel/5c67b26fd4bd6d8df5c1abf15bd59dc1180914.jpg", "shopid": 2598619, "lng": 114.13725, "lat": 22.576582, "dishtag": "其他景点", "shoppower": 35}, {"name": "海滨生态公园", "address": "滨河大道", "avgprice": -1, "pic": "http://qcloud.dpfile.com/pc/9j7bYDHIsE-QNoOC9PYRJv8yqrEJ5dlakFZWjPhMeDRGEzAPPptLTCRa2KhFCT1UtOnd3gXQdDYlAqlaVaAFeZ0rYYyiRo_EhzufqWWjTjs.jpg", "shopid": 56667861, "lng": 114.00118, "lat": 22.522692, "dishtag": "公园", "shoppower": 40}, {"name": "塘尾公园", "address": "塘尾路30号902-", "avgprice": -1, "pic": "http://qcloud.dpfile.com/pc/hjT9C8e8WD2ODu1oe4ifP__3CtQ--igQDZAU3L386d12D-aWdrpf_hSIQXn7wiMotOnd3gXQdDYlAqlaVaAFeZ0rYYyiRo_EhzufqWWjTjs.jpg", "shopid": 96076851, "lng": 113.90489, "lat": 22.75048, "dishtag": "公园", "shoppower": 35}, {"name": "黄帝陵", "address": "深南大道9003锦绣中华内", "avgprice": -1, "pic": "http://p0.meituan.net/hotel/ab6cfa3e5f79c20f6de975f1b8b09d43369746.png", "shopid": 14984199, "lng": 113.99179, "lat": 22.530924, "dishtag": "名胜古迹", "shoppower": 35}, {"name": "北贤海上休闲旅游有限公司", "address": "沙埔村三巷10号", "avgprice": -1, "pic": "http://p1.meituan.net/hotel/4695cba3605d71d97d2a892256de72ad312075.png", "shopid": 79679414, "lng": 114.529434, "lat": 22.555864, "dishtag": "其他景点", "shoppower": 35}, {"name": "思月书院", "address": "东门文化广场", "avgprice": -1, "pic": "http://p1.meituan.net/travel/0a4a8d18e00b03227acfd987f308276b148050.jpg", "shopid": 1705708, "lng": 114.12026, "lat": 22.54642, "dishtag": "名胜古迹", "shoppower": 35}, {"name": "前海石公园", "address": "前海桂湾河水廊道的入海口", "avgprice": -1, "pic": "http://qcloud.dpfile.com/pc/MFlTF7bMqsqSDnVYGFCHMLh4iw4AH0XOUmRI5IEWOxXsyAGNfJ1pc9w7eCaXoMGntOnd3gXQdDYlAqlaVaAFeZ0rYYyiRo_EhzufqWWjTjs.jpg", "shopid": 96694497, "lng": 113.88476, "lat": 22.52393, "dishtag": "公园", "shoppower": 35}, {"name": "化石森林区", "address": "无忧路", "avgprice": -1, "pic": "http://p0.meituan.net/travel/01bae7154ffbec71c5cc59b1a9a40f56146748.jpg", "shopid": 15626418, "lng": 114.176, "lat": 22.583202, "dishtag": "公园", "shoppower": 35}, {"name": "1980文化产业创意园", "address": "民治街道民福路", "avgprice": -1, "pic": "http://p1.meituan.net/travel/c2120f44d84a90b42a76a30b349c8d7533861.jpg", "shopid": 14194397, "lng": 114.03474, "lat": 22.62548, "dishtag": "观光街区", "shoppower": 35}, {"name": "太阳山", "address": "大芬村老围47号", "avgprice": -1, "pic": "http://p1.meituan.net/hotel/2a75f74b2687ecf0f9d2fba8d9d784da350217.png", "shopid": 5609567, "lng": 114.13585, "lat": 22.609993, "dishtag": "其他景点", "shoppower": 35}, {"name": "妙觉寺", "address": "横岗东南部的惠盐公路东侧园山风景区内", "avgprice": -1, "pic": "http://qcloud.dpfile.com/pc/JuHo-GFMxZCblSzpyH5JRpYv8rGLGH4zB7Kwchh138g0pUlE80XOPlInPTnkJtEjtOnd3gXQdDYlAqlaVaAFeZ0rYYyiRo_EhzufqWWjTjs.jpg", "shopid": 23101328, "lng": 114.20965, "lat": 22.648624, "dishtag": "名胜古迹", "shoppower": 35}, {"name": "新安广场", "address": "宝民一路69号405室", "avgprice": -1, "pic": "http://p0.meituan.net/travel/0e0c0c5a6161f785b9c1be4b2a36d32638163.jpg", "shopid": 10813399, "lng": 113.90051, "lat": 22.56264, "dishtag": "公园", "shoppower": 35}, {"name": "文心一路步行街", "address": "文心一路159号附近", "avgprice": -1, "pic": "http://p0.meituan.net/travel/026a1f6b5b21283b846d7aa74831c91d82317.jpg", "shopid": 10788621, "lng": 113.92962, "lat": 22.518518, "dishtag": "观光街区", "shoppower": 35}, {"name": "西涌海滨浴场4号沙滩", "address": "南澳镇西冲村4号沙滩", "avgprice": 16, "pic": "http://p0.meituan.net/travel/9a342dfbfa9b378c7572f753c32da7cb65104.jpg", "shopid": 23893281, "lng": 114.54967, "lat": 22.48389, "dishtag": "自然风光", "shoppower": 35}, {"name": "文心公园", "address": "海德三道茂业百货南山店北门附近", "avgprice": -1, "pic": "http://p1.meituan.net/travel/b2d80d73cffe946ca8dd041ae0d058c797533.jpg", "shopid": 4033675, "lng": 113.93005, "lat": 22.520891, "dishtag": "公园", "shoppower": 35}, {"name": "芙蓉桥", "address": "洪湖公园", "avgprice": -1, "pic": "http://qcloud.dpfile.com/pc/E94T54-WORrVdMG5QASjJU8TQDfTIDF1C7Cw538gMtfHjlYGlwvmDrKgf1j7TbngtOnd3gXQdDYlAqlaVaAFeZ0rYYyiRo_EhzufqWWjTjs.jpg", "shopid": 67267889, "lng": 114.12018, "lat": 22.564901, "dishtag": "城市观光", "shoppower": 40}, {"name": "燕晗山郊野公园", "address": "香山中街", "avgprice": -1, "pic": "http://p1.meituan.net/travel/4c7b3e33556b02fa1e10ab9217667bb8156861.jpg", "shopid": 4033642, "lng": 113.98488, "lat": 22.542894, "dishtag": "公园", "shoppower": 35}, {"name": "海风运动公园", "address": "望海路", "avgprice": -1, "pic": "http://p0.meituan.net/travel/f3197f1915d2bd7d64559fd2df36001483372.jpg", "shopid": 66239912, "lng": 113.946884, "lat": 22.486147, "dishtag": "公园", "shoppower": 35}, {"name": "东海文化广场", "address": "香轩路46号", "avgprice": -1, "pic": "http://p1.meituan.net/travel/80413e9cc42c93560efa57f6e07d055048433.jpg", "shopid": 10797201, "lng": 114.02192, "lat": 22.53935, "dishtag": "公园", "shoppower": 35}, {"name": "仙桐体育公园", "address": "莲塘梧桐山", "avgprice": -1, "pic": "http://p0.meituan.net/travel/e6d571a3c49bc8427214bf0e9154e7d3107029.jpg", "shopid": 4666529, "lng": 114.18581, "lat": 22.562056, "dishtag": "公园", "shoppower": 35}, {"name": "婚庆广场", "address": "望海路", "avgprice": -1, "pic": "http://p0.meituan.net/travel/192bf728dc1edbecec4572b73cf4cea5163350.jpg", "shopid": 66531266, "lng": 113.95167, "lat": 22.491312, "dishtag": "公园", "shoppower": 35}, {"name": "辅城生态农庄", "address": "平湖辅城坳新源路3号", "avgprice": -1, "pic": "http://qcloud.dpfile.com/pc/5dZUN5GFGbtg54L5MPZUrp3gkoqw-AAwDkSiCvzXMLqgc9RJlnFycIAKPeAVvXnMtOnd3gXQdDYlAqlaVaAFeZ0rYYyiRo_EhzufqWWjTjs.jpg", "shopid": 21726075, "lng": 114.095276, "lat": 22.696218, "dishtag": "采摘/农家乐", "shoppower": 30}, {"name": "海乐社区公园", "address": "宝安大道与创业一路交汇处", "avgprice": -1, "pic": "http://qcloud.dpfile.com/pc/z7fPmz3zlq2b1hUU_cjYi1JpHdQjCVggwqsHyB6tx-TChLLd2xH9HfqaUw41LpAhtOnd3gXQdDYlAqlaVaAFeZ0rYYyiRo_EhzufqWWjTjs.jpg", "shopid": 94302800, "lng": 113.89262, "lat": 22.558584, "dishtag": "公园", "shoppower": 35}, {"name": "邓小平手植树", "address": "莲塘仙湖路160号仙湖植物园内", "avgprice": -1, "pic": "http://p0.meituan.net/travel/aca07bc7cf8a76c226cfa58216753164153280.jpg", "shopid": 16164007, "lng": 114.17651, "lat": 22.58002, "dishtag": "其他景点", "shoppower": 35}, {"name": "新城公园", "address": "公园路", "avgprice": -1, "pic": "http://qcloud.dpfile.com/pc/8pm9kDGtyH0h7E7PGmn4s754iPcopoc5C1dRjqXoe4pFTj1zLblk4OmXGeqiqp1ntOnd3gXQdDYlAqlaVaAFeZ0rYYyiRo_EhzufqWWjTjs.jpg", "shopid": 95907259, "lng": 113.94818, "lat": 22.74573, "dishtag": "公园", "shoppower": 35}, {"name": "流塘公园", "address": "前进二路流塘公园", "avgprice": -1, "pic": "http://p1.meituan.net/hotel/6b4376238803e59bd82b5bfd270d63cd88366.jpg", "shopid": 4531809, "lng": 113.89168, "lat": 22.582937, "dishtag": "公园", "shoppower": 35}, {"name": "新安公园", "address": "新安二路与前进一路交口新安公园", "avgprice": -1, "pic": "http://p0.meituan.net/hotel/af3c25b786af8c36fb9502b8a2cee172526305.png", "shopid": 4033657, "lng": 113.91186, "lat": 22.56342, "dishtag": "公园", "shoppower": 35}, {"name": "梧桐山大门", "address": "罗沙路", "avgprice": -1, "pic": "http://p0.meituan.net/travel/8b055a9cee326a16e7290cdd08006e8236111.jpg", "shopid": 17517774, "lng": 114.18294, "lat": 22.557632, "dishtag": "名胜古迹", "shoppower": 35}, {"name": "u5绿道", "address": "东湖公园东湖二路15号", "avgprice": -1, "pic": "http://p1.meituan.net/travel/ea4f14ca92d6a9f9966ac924a105471b225658.jpg", "shopid": 58183131, "lng": 114.1515, "lat": 22.56309, "dishtag": "公园", "shoppower": 35}, {"name": "吴国豪故居", "address": "科技南一路W1-A5号", "avgprice": -1, "pic": "http://qcloud.dpfile.com/pc/mLjqTOI7p0n4Af1amrzwTd7linSRxRUl9v7BMht6nWYW2o0Pn5aTguX_PQEudt5rtOnd3gXQdDYlAqlaVaAFeZ0rYYyiRo_EhzufqWWjTjs.jpg", "shopid": 80625856, "lng": 113.93889, "lat": 22.533012, "dishtag": "名胜古迹", "shoppower": 35}, {"name": "梅林公园古荔区", "address": "龙尾路鸿浩阁附近", "avgprice": -1, "pic": "http://p1.meituan.net/travel/4ac462f021d11f563ea21844d398c08684595.jpg", "shopid": 16408274, "lng": 114.04219, "lat": 22.56943, "dishtag": "公园", "shoppower": 35}, {"name": "深圳市龙岗清真寺", "address": "植物园路341号2层", "avgprice": -1, "pic": "http://qcloud.dpfile.com/pc/tqjB2NhYCo5JK11HnNDN93lhvzSdPa8LRS9NYSvo6-V-RM1DpXZt13NUAK0r0kjCtOnd3gXQdDYlAqlaVaAFeZ0rYYyiRo_EhzufqWWjTjs.jpg", "shopid": 16918808, "lng": 114.26624, "lat": 22.715214, "dishtag": "名胜古迹", "shoppower": 35}, {"name": "大望槟榔公园", "address": "大望村642号", "avgprice": -1, "pic": "http://p1.meituan.net/travel/67e0be91f7f59988bdae55e41d2fd42650518.jpg", "shopid": 10819994, "lng": 114.17363, "lat": 22.600346, "dishtag": "公园", "shoppower": 35}, {"name": "女娲补天", "address": "蛇口海上世界望海路", "avgprice": -1, "pic": "http://p0.meituan.net/travel/1f750425af2751c91758c0679da4a56c90459.jpg", "shopid": 10791762, "lng": 113.91766, "lat": 22.481571, "dishtag": "其他景点", "shoppower": 35}, {"name": "大万世居", "address": "坪山镇坪山墟西南侧", "avgprice": -1, "pic": "http://p0.meituan.net/travel/9bb0f04854a9378c015f7b2f34c4f42c90315.jpg", "shopid": 6059646, "lng": 114.34199, "lat": 22.681501, "dishtag": "名胜古迹", "shoppower": 35}, {"name": "围岭公园", "address": "翠竹路", "avgprice": -1, "pic": "http://p0.meituan.net/travel/458be5b1d3e64c57abacd6ef7979aed299156.jpg", "shopid": 4033618, "lng": 114.12655, "lat": 22.584078, "dishtag": "公园", "shoppower": 35}, {"name": "深圳湾大运火炬塔广场", "address": "望海路", "avgprice": -1, "pic": "http://p0.meituan.net/travel/8905d51a83f78314eca137a88cb13e3369194.jpg", "shopid": 15626445, "lng": 113.95318, "lat": 22.499685, "dishtag": "公园", "shoppower": 35}, {"name": "东湖公园盆景世界", "address": "东湖一街14号东湖公园内", "avgprice": -1, "pic": "http://p1.meituan.net/travel/68fb94f8792fa92d9e4dc46bbdf04744232170.jpg", "shopid": 10822158, "lng": 114.14915, "lat": 22.565557, "dishtag": "公园", "shoppower": 35}, {"name": "美国加拿大尼亚拉加大瀑布", "address": "世界之窗内", "avgprice": -1, "pic": "http://p0.meituan.net/travel/9bc47ceddb1c93198e1cabb423bb90e742273.jpg", "shopid": 16410591, "lng": 113.97061, "lat": 22.533691, "dishtag": "自然风光", "shoppower": 35}, {"name": "望峰亭", "address": "鹏兴路21号", "avgprice": -1, "pic": "http://qcloud.dpfile.com/pc/4p0Rhs_L2ZyamZiCERh-Yp3XlYiqKKKpbpPH6j4FBxp5tn8kypBcqNwHnjg96EvTtOnd3gXQdDYlAqlaVaAFeZ0rYYyiRo_EhzufqWWjTjs.jpg", "shopid": 92419362, "lng": 114.161476, "lat": 22.566519, "dishtag": "城市观光", "shoppower": 35}, {"name": "海滨广场", "address": "创业一路", "avgprice": -1, "pic": "http://qcloud.dpfile.com/pc/m2pZZyg0EqAHPr9WEHw-6WDDZSIB7LWnyPrqLORHXAOyNl-Yq-8w14dGUfPcLfhutOnd3gXQdDYlAqlaVaAFeZ0rYYyiRo_EhzufqWWjTjs.jpg", "shopid": 27537552, "lng": 113.88378, "lat": 22.55182, "dishtag": "其他景点", "shoppower": 35}, {"name": "南油社区公园", "address": "华明路28号", "avgprice": -1, "pic": "http://p0.meituan.net/travel/04955b1c6fa8f6864ed785b161516cfc191195.jpg", "shopid": 16915570, "lng": 113.927414, "lat": 22.507374, "dishtag": "公园", "shoppower": 35}, {"name": "天主堂", "address": "上川路469号", "avgprice": -1, "pic": "http://p1.meituan.net/travel/95925deb2672c7f3b7c8489e9c7e1b5370823.jpg", "shopid": 10809818, "lng": 113.9074, "lat": 22.58283, "dishtag": "名胜古迹", "shoppower": 35}, {"name": "彩田公园", "address": "北环大道入口与彩田路交叉口东150米", "avgprice": -1, "pic": "http://p1.meituan.net/travel/64192b3544608d858f7a66fd2fbc6e3170431.jpg", "shopid": 4033645, "lng": 114.06497, "lat": 22.562893, "dishtag": "公园", "shoppower": 35}, {"name": "杨梅坑山海天然潭娱乐农庄", "address": "南澳镇杨梅坑天然潭度假村", "avgprice": 121, "pic": "http://p0.meituan.net/travel/e11dc936aba61f79c251fc965bbf593e160542.jpg", "shopid": 10020774, "lng": 114.570724, "lat": 22.542175, "dishtag": "其他景点", "shoppower": 35}, {"name": "公明广场", "address": "公明街道松白公路", "avgprice": -1, "pic": "http://p1.meituan.net/hotel/14e29ec90fa228b7b5d8d9d94bc2f4ca584296.png", "shopid": 5103210, "lng": 113.89464, "lat": 22.776644, "dishtag": "观光街区", "shoppower": 35}, {"name": "深圳国际园林花卉博览园", "address": "侨香路", "avgprice": -1, "pic": "http://p0.meituan.net/travel/1d2cc142505c696455657ad82fafe4d4140588.jpg", "shopid": 10792934, "lng": 114.00174, "lat": 22.542404, "dishtag": "公园", "shoppower": 35}, {"name": "锦绣园", "address": "三龙花园附近", "avgprice": -1, "pic": "http://p1.meituan.net/travel/c35d5439e3bc6a34a50f8494e0a2285699760.jpg", "shopid": 10792605, "lng": 114.06129, "lat": 22.52582, "dishtag": "公园", "shoppower": 35}, {"name": "乐淘里地下商业街", "address": "华强北路1017号附近", "avgprice": -1, "pic": "http://qcloud.dpfile.com/pc/XTqWUFqM0-76BLz1SUcf2HhW_a0z2uqphY9wXEw3LNuDgi1DHujpwIe4H8It60-AtOnd3gXQdDYlAqlaVaAFeZ0rYYyiRo_EhzufqWWjTjs.jpg", "shopid": 16909192, "lng": 114.08662, "lat": 22.5419, "dishtag": "观光街区", "shoppower": 35}, {"name": "清湖文化公园", "address": "清湖老村", "avgprice": -1, "pic": "http://qcloud.dpfile.com/pc/mxbZ3AvYcvl_7E14b9-5STPCjY0xMl5ADC8-jjWa8ncikEni-fuyAaWSlxWlmmXgtOnd3gXQdDYlAqlaVaAFeZ0rYYyiRo_EhzufqWWjTjs.jpg", "shopid": 10816487, "lng": 114.05123, "lat": 22.670158, "dishtag": "公园", "shoppower": 35}, {"name": "南头古城垣", "address": "南山大道3039旁", "avgprice": -1, "pic": "http://p1.meituan.net/travel/743dd8280e6d9f277ecc566e499cb213186553.jpg", "shopid": 16436680, "lng": 113.923294, "lat": 22.543467, "dishtag": "名胜古迹", "shoppower": 35}, {"name": "海景栈道", "address": "海景路", "avgprice": -1, "pic": "http://p1.meituan.net/travel/0d0a91aa85afdbb979a37e5927b8d2af69874.jpg", "shopid": 10787030, "lng": 114.241776, "lat": 22.552113, "dishtag": "自然风光", "shoppower": 35}, {"name": "望牛亭公园", "address": "政丰北路", "avgprice": -1, "pic": "http://p1.meituan.net/travel/4b5221ebe02298fa3d705ffbb755238551145.jpg", "shopid": 10812109, "lng": 113.81662, "lat": 22.676105, "dishtag": "公园", "shoppower": 35}, {"name": "龙王古庙", "address": "福永大道", "avgprice": -1, "pic": "http://p1.meituan.net/travel/d236ff7aadaebb29515587a10cf3346459319.jpg", "shopid": 10816441, "lng": 113.83977, "lat": 22.670807, "dishtag": "名胜古迹", "shoppower": 35}, {"name": "咆哮山洪", "address": "东部华侨城大峡谷", "avgprice": -1, "pic": "http://qcloud.dpfile.com/pc/0qwoBmUfUqYHwRkFEhZFVH-wyFWqW1GtUozZs9-LAEtuPZT6T-DqHOMf7cEoDnZGtOnd3gXQdDYlAqlaVaAFeZ0rYYyiRo_EhzufqWWjTjs.jpg", "shopid": 76932157, "lng": 114.30032, "lat": 22.618052, "dishtag": "其他景点", "shoppower": 35}, {"name": "香蜜湖东亚国际风情街", "address": "香林路14号", "avgprice": -1, "pic": "http://p1.meituan.net/travel/03d571e7eba4a002f3e4764378dcd4d5116093.jpg", "shopid": 10795538, "lng": 114.025696, "lat": 22.53844, "dishtag": "观光街区", "shoppower": 35}, {"name": "罗租岭公园", "address": "石岩大道罗租岭公园", "avgprice": -1, "pic": "http://p1.meituan.net/hotel/80a031505190a46eadb66594ba6774fc423852.png", "shopid": 4033696, "lng": 113.93656, "lat": 22.675882, "dishtag": "公园", "shoppower": 35}, {"name": "罗湖体育休闲公园", "address": "黄贝街道办爱国路东湖二路10号", "avgprice": -1, "pic": "http://p0.meituan.net/travel/297a160cc4c0396ee66b78c552c1974d27621.jpg", "shopid": 67712106, "lng": 114.15116, "lat": 22.56167, "dishtag": "公园", "shoppower": 35}, {"name": "F518时尚创意园创展中心", "address": "宝源路F518时尚创意园创展中心", "avgprice": -1, "pic": "http://p0.meituan.net/travel/20a6ad36445dd4b5340476c45bbdc2bb433841.jpg", "shopid": 5526279, "lng": 113.86184, "lat": 22.565844, "dishtag": "观光街区", "shoppower": 35}, {"name": "绿野乡村露营基地", "address": "金龟村同石小区", "avgprice": -1, "pic": "http://p0.meituan.net/travel/7c4145bd1188f52856290e758958238648312.jpg", "shopid": 18563232, "lng": 114.39851, "lat": 22.65479, "dishtag": "其他景点", "shoppower": 35}, {"name": "万佛禅寺", "address": "罗沙路5026号", "avgprice": -1, "pic": "http://p0.meituan.net/travel/d1932bcb3b6194703945643630bddf5a41184.jpg", "shopid": 10820698, "lng": 114.147255, "lat": 22.553617, "dishtag": "名胜古迹", "shoppower": 35}, {"name": "Boy London(来福士广场店)", "address": "南海大道2163号来福士广场", "avgprice": -1, "pic": "http://qcloud.dpfile.com/pc/-pA2QIldNzlahrrHKpTLROMYNneL_VHBS7KA2E877_czT_DHfqHPpoJ3fKALjcNctOnd3gXQdDYlAqlaVaAFeZ0rYYyiRo_EhzufqWWjTjs.jpg", "shopid": 90926818, "lng": 113.92553, "lat": 22.51271, "dishtag": "城市观光", "shoppower": 35}, {"name": "内伶仃国家级自然保护区", "address": "红树林路1号", "avgprice": -1, "pic": "http://p0.meituan.net/travel/3d0ed6bb538d616cbdfbef3a4065d7e981027.jpg", "shopid": 10793388, "lng": 114.00865, "lat": 22.529194, "dishtag": "自然风光", "shoppower": 35}, {"name": "橡木庄园酒业", "address": "前海路荷兰花卉小镇", "avgprice": -1, "pic": "http://p1.meituan.net/travel/5bc4262fc90c824e7002198165f4fa2b86604.jpg", "shopid": 5342677, "lng": 113.91062, "lat": 22.54438, "dishtag": "自然风光", "shoppower": 35}, {"name": "长岭陂水库果场", "address": "西丽镇长岭陂水库", "avgprice": 42, "pic": "http://qcloud.dpfile.com/pc/7fV6KkB3UhWcct73oyS-bLtKo-MxK7HLS1aD__RflcXIPdgsnHBjiHrCah_6I5R5tOnd3gXQdDYlAqlaVaAFeZ0rYYyiRo_EhzufqWWjTjs.jpg", "shopid": 18279728, "lng": 113.94594, "lat": 22.57812, "dishtag": "自然风光", "shoppower": 35}, {"name": "沙井市民广场", "address": "沙井中心路", "avgprice": -1, "pic": "http://p1.meituan.net/travel/7488ee6c20a208760e03a4607e10ce2f50508.jpg", "shopid": 8038927, "lng": 113.82873, "lat": 22.724771, "dishtag": "名胜古迹", "shoppower": 35}, {"name": "天上人间", "address": "莲塘仙湖路160号仙湖植物园内", "avgprice": -1, "pic": "http://p0.meituan.net/travel/ba7199a463c16e8dcdaf6ebce795e177114908.jpg", "shopid": 16551468, "lng": 114.17721, "lat": 22.580063, "dishtag": "其他景点", "shoppower": 35}, {"name": "东江纵队北撤纪念公园", "address": "葵涌官湖村内官湖中路", "avgprice": -1, "pic": "http://p0.meituan.net/travel/cda4372680d1f8329ad793499f492ef6183336.jpg", "shopid": 13808222, "lng": 114.42535, "lat": 22.60462, "dishtag": "公园", "shoppower": 35}, {"name": "水围商业步行街", "address": "水围村", "avgprice": -1, "pic": "http://p1.meituan.net/travel/0bad661fc6d95985cae98bfd4eb540ef47096.jpg", "shopid": 10793339, "lng": 114.06525, "lat": 22.520136, "dishtag": "观光街区", "shoppower": 35}, {"name": "五指耙水库", "address": "松岗镇东方村大田洋", "avgprice": -1, "pic": "http://qcloud.dpfile.com/pc/Ns9O6mOEM_u8SpvYvFGddhUEhtfYqMKkCuOrzz9vrfWUCtqyR-ocveGozzal2Q_9tOnd3gXQdDYlAqlaVaAFeZ0rYYyiRo_EhzufqWWjTjs.jpg", "shopid": 92734041, "lng": 113.87563, "lat": 22.747381, "dishtag": "自然风光", "shoppower": 35}, {"name": "意大利比萨斜塔", "address": "世界之窗内", "avgprice": -1, "pic": "http://p1.meituan.net/travel/fa71b2f3e559fcdff227a21020fa319d84996.jpg", "shopid": 16670375, "lng": 113.9746, "lat": 22.532616, "dishtag": "名胜古迹", "shoppower": 35}, {"name": "深南溢彩", "address": "深南东路、深南中路、深南大道及沿途景观", "avgprice": -1, "pic": "http://p1.meituan.net/travel/ca91fdaac43e8d69a81edd50ae9e50d849882.jpg", "shopid": 1705771, "lng": 114.12367, "lat": 22.543943, "dishtag": "其他景点", "shoppower": 35}, {"name": "南山观景台(导航台)", "address": "蛇口沿山路8号南山公园", "avgprice": -1, "pic": "http://qcloud.dpfile.com/pc/B2nb9nCQ3k1P_W7e8iHNf9gFznnh2wzUI8ztb5zOydxfIrBx1qjFI1IJwOwyeAgbtOnd3gXQdDYlAqlaVaAFeZ0rYYyiRo_EhzufqWWjTjs.jpg", "shopid": 76406195, "lng": 113.913925, "lat": 22.492302, "dishtag": "高空观景", "shoppower": 35}, {"name": "洪田火山", "address": "沙井洪田B637路上行", "avgprice": -1, "pic": "http://p0.meituan.net/travel/cde2567cc6178ed85e623eea68cef13e167252.jpg", "shopid": 5518167, "lng": 113.85494, "lat": 22.71326, "dishtag": "公园", "shoppower": 35}, {"name": "东湖公园树木园", "address": "东湖二路12号", "avgprice": -1, "pic": "http://p0.meituan.net/travel/b7f928b03f6819f07c966e452c33d50964660.jpg", "shopid": 15626416, "lng": 114.14811, "lat": 22.56398, "dishtag": "公园", "shoppower": 35}, {"name": "紫薇公园", "address": "新洲路近福华三路", "avgprice": -1, "pic": "http://qcloud.dpfile.com/pc/iH4ngKSojsxSMRDLkvLU34Cra4y3WhGmzFg8YB6nsop74emXkjUKBoRZOusmpkz3tOnd3gXQdDYlAqlaVaAFeZ0rYYyiRo_EhzufqWWjTjs.jpg", "shopid": 67079903, "lng": 114.04938, "lat": 22.532558, "dishtag": "公园", "shoppower": 35}, {"name": "富士康科技集团J区商业街", "address": "G94珠三角环线高速出口", "avgprice": -1, "pic": "http://qcloud.dpfile.com/pc/rcnR93JoWQBIsnu6EGF63rVVjoPmby4VpwkQSVG-fhI32iHpQfqTt42Nj-6Xj6n-tOnd3gXQdDYlAqlaVaAFeZ0rYYyiRo_EhzufqWWjTjs.jpg", "shopid": 10816127, "lng": 114.05007, "lat": 22.662107, "dishtag": "观光街区", "shoppower": 35}, {"name": "杜鹃园", "address": "爱国路", "avgprice": -1, "pic": "http://p0.meituan.net/travel/b1f1c9fdb43226e16298ef8c2e2ca60379177.jpg", "shopid": 10821768, "lng": 114.147125, "lat": 22.5637, "dishtag": "公园", "shoppower": 35}, {"name": "大鹏农科生态园", "address": "大鹏新区鹏飞路400号", "avgprice": -1, "pic": "http://p0.meituan.net/travel/b55f1014e36866b92eb052f23b7ab02b180369.jpg", "shopid": 69646383, "lng": 114.52746, "lat": 22.593039, "dishtag": "其他景点", "shoppower": 30}, {"name": "极限狗狗公园gogopark", "address": "高尔夫大道1号", "avgprice": -1, "pic": "http://qcloud.dpfile.com/pc/iwm4OlvvnXoaR8OSOVT_r6A39kMd-1Go1aHh7cIysPZKTT7DfA2TTIP91vsaqA3xtOnd3gXQdDYlAqlaVaAFeZ0rYYyiRo_EhzufqWWjTjs.jpg", "shopid": 23411118, "lng": 114.07652, "lat": 22.73669, "dishtag": "公园", "shoppower": 35}, {"name": "茂盛公园", "address": "横岗镇茂盛路", "avgprice": -1, "pic": "http://p1.meituan.net/hotel/c3a22e112ddd9a7ac667cd9c80015b33336256.png", "shopid": 4033684, "lng": 114.202354, "lat": 22.652716, "dishtag": "公园", "shoppower": 35}, {"name": "信国公文氏祠", "address": "中山东街26号", "avgprice": -1, "pic": "http://p0.meituan.net/hoteltdc/49f2be4172fa6530d2e180a8b31ad4ab273554.jpg", "shopid": 10789328, "lng": 113.922134, "lat": 22.543636, "dishtag": "名胜古迹", "shoppower": 35}, {"name": "丽星邮轮处女星号", "address": "深圳蛇口太子湾邮轮中心", "avgprice": -1, "pic": "http://qcloud.dpfile.com/pc/Loq8bqAVX52gMaD85YwdmVqYlgEN8cQXZOECi4uUrvanMrQrf2w9L0z8KwyFSSEptOnd3gXQdDYlAqlaVaAFeZ0rYYyiRo_EhzufqWWjTjs.jpg", "shopid": 79292755, "lng": 113.91976, "lat": 22.48966, "dishtag": "城市观光", "shoppower": 35}, {"name": "乐永慧儿童乐园(新一佳店)", "address": "深盐路与海涛路交汇处碧海蓝天明苑新一佳超市2楼", "avgprice": -1, "pic": "http://p1.meituan.net/travel/0d6e2012cd0a6d12b4825eae437513c8100178.jpg", "shopid": 24697987, "lng": 114.23481, "lat": 22.553308, "dishtag": "游乐园", "shoppower": 35}, {"name": "天后古庙", "address": "赤湾三路", "avgprice": -1, "pic": "http://p0.meituan.net/travel/e0ceb67d5d5ce6cf5ff14495d45a29a699112.jpg", "shopid": 10790966, "lng": 113.89308, "lat": 22.47819, "dishtag": "名胜古迹", "shoppower": 35}, {"name": "洋葱头儿童游乐园", "address": "石岩镇宏发大世界广场岁宝百货4楼", "avgprice": -1, "pic": "http://p0.meituan.net/apiback/d2143cfc47acdae05129e099fb6d67c3116295.jpg", "shopid": 14906892, "lng": 113.9301, "lat": 22.67492, "dishtag": "亲子乐园", "shoppower": 35}, {"name": "龙田世居", "address": "坑梓镇田段心村", "avgprice": -1, "pic": "http://p0.meituan.net/travel/8ab2719500ff28d7b108bc98451b382f65121.jpg", "shopid": 1705702, "lng": 114.37149, "lat": 22.74793, "dishtag": "名胜古迹", "shoppower": 35}, {"name": "妙妙屋儿童乐园", "address": "平湖街道新木老街兴万佳华百货新木店2楼", "avgprice": -1, "pic": "http://p1.meituan.net/apiback/290a93a82ad766ffd5ffe84c0da64b03258268.jpg", "shopid": 21379431, "lng": 114.12761, "lat": 22.667944, "dishtag": "亲子乐园", "shoppower": 35}, {"name": "辉丰贸易有限公司(福田农批市场店)", "address": "福田农批市场", "avgprice": -1, "pic": "http://p0.meituan.net/travel/7e5eccb174490008cd9137430e93853466139.jpg", "shopid": 6153810, "lng": 114.03644, "lat": 22.564283, "dishtag": "游乐园", "shoppower": 35}, {"name": "赤湾四景", "address": "北环大道辅路", "avgprice": -1, "pic": "http://p1.meituan.net/travel/643eb1b622504a48aa26ede3894b924b5856.jpg", "shopid": 1705714, "lng": 113.94416, "lat": 22.55311, "dishtag": "名胜古迹", "shoppower": 35}, {"name": "坪山湿地公园", "address": "金牛东路茜坑路段", "avgprice": -1, "pic": "http://p1.meituan.net/travel/701fe17faac1170813e16c469155e3ce38645.jpg", "shopid": 16459451, "lng": 114.40618, "lat": 22.70978, "dishtag": "公园", "shoppower": 35}, {"name": "万昌水族·园林", "address": "民冶大道1053号", "avgprice": -1, "pic": "http://p1.meituan.net/travel/ead8b24f2e94f4fdfb69b0de0e835434570280.jpg", "shopid": 16564710, "lng": 114.037895, "lat": 22.638914, "dishtag": "自然风光", "shoppower": 35}, {"name": "东方神曲游乐场", "address": "罗沙路", "avgprice": -1, "pic": "http://p0.meituan.net/travel/d6228f5eb01b188c55ec87577e8423a377822.jpg", "shopid": 10820064, "lng": 114.14764, "lat": 22.555117, "dishtag": "游乐园", "shoppower": 35}, {"name": "下沙文化广场", "address": "祠堂后街与1路交叉口南150米", "avgprice": -1, "pic": "http://qcloud.dpfile.com/pc/1UVyslfICV7ACrOnCgmchZFXpKKK4KY1MIbPAX-qODqNT_vXeaobucCupNkVwQAjtOnd3gXQdDYlAqlaVaAFeZ0rYYyiRo_EhzufqWWjTjs.jpg", "shopid": 97105482, "lng": 114.02631, "lat": 22.525944, "dishtag": "观光街区", "shoppower": 35}, {"name": "中心区滨海绿地", "address": "宝兴路", "avgprice": -1, "pic": "http://p1.meituan.net/travel/5d01dcea46c7085927cdf9b84d43adc7204789.png", "shopid": 14162743, "lng": 113.88201, "lat": 22.54547, "dishtag": "公园", "shoppower": 35}, {"name": "深圳经济特区建立三十周年纪念园", "address": "彩田路莲花山公园内", "avgprice": -1, "pic": "http://p0.meituan.net/travel/e28dcd82f5e8df0bae61337ab4f6642a35124.jpg", "shopid": 5510917, "lng": 114.06732, "lat": 22.565826, "dishtag": "名胜古迹", "shoppower": 35}, {"name": "雨林溪谷", "address": "红荔路6026号", "avgprice": -1, "pic": "http://qcloud.dpfile.com/pc/8QGrOXcG1JQ7fYlPx8wFkNm1zZa27JyeBVCo3sPeEpCpRKzSBzQnLPwzWURFZUAvtOnd3gXQdDYlAqlaVaAFeZ0rYYyiRo_EhzufqWWjTjs.jpg", "shopid": 16916389, "lng": 114.0558, "lat": 22.54869, "dishtag": "自然风光", "shoppower": 35}, {"name": "九岗八仙岭公园", "address": "龙城街道", "avgprice": -1, "pic": "http://qcloud.dpfile.com/pc/j9lc7EKKXKr9-Cq07jPTkVQa3XdlsNLRTPKXBbbHyNSA0_jKGKpgXpWzxe4vYsygtOnd3gXQdDYlAqlaVaAFeZ0rYYyiRo_EhzufqWWjTjs.jpg", "shopid": 17703505, "lng": 114.21585, "lat": 22.70199, "dishtag": "公园", "shoppower": 35}, {"name": "新洲文化广场", "address": "深南大道6006号", "avgprice": -1, "pic": "http://p1.meituan.net/travel/f6fd70e759c475286cbd1c04bf9e0a4e60241.jpg", "shopid": 10796305, "lng": 114.04593, "lat": 22.521816, "dishtag": "公园", "shoppower": 35}, {"name": "青青世界酒店", "address": "月亮湾青青路1号青青世界团购客服中心", "avgprice": -1, "pic": "http://qcloud.dpfile.com/pc/F3kXr70mt61UQ9qv-RKpXPQp5dcHo0xGNo9H_fjQzZ2naWB5pQE-0MENC6SaYjHltOnd3gXQdDYlAqlaVaAFeZ0rYYyiRo_EhzufqWWjTjs.jpg", "shopid": 58922498, "lng": 113.90112, "lat": 22.49927, "dishtag": "游乐园", "shoppower": 35}, {"name": "罗湖书城广场步行街", "address": "深南东路5033号金山大厦罗湖书城底商", "avgprice": -1, "pic": "http://p1.meituan.net/travel/e925936d38a9fcfe495bac58131a5f7981113.jpg", "shopid": 5616446, "lng": 114.10903, "lat": 22.540943, "dishtag": "观光街区", "shoppower": 35}, {"name": "昭君墓", "address": "深南大道9003锦绣中华内景点", "avgprice": -1, "pic": "http://qcloud.dpfile.com/pc/cY_a1ZibwrJY-GaymGa1zfSMKELn76C3QBQVrI7zWSGDgi1DHujpwIe4H8It60-AtOnd3gXQdDYlAqlaVaAFeZ0rYYyiRo_EhzufqWWjTjs.jpg", "shopid": 14988375, "lng": 113.992004, "lat": 22.531706, "dishtag": "名胜古迹", "shoppower": 35}, {"name": "洪浪公园", "address": "洪文路", "avgprice": -1, "pic": "http://p1.meituan.net/travel/6e3f65e5cc5ac34f2e32d2ba19ccad0a114239.jpg", "shopid": 32467177, "lng": 113.9164, "lat": 22.57001, "dishtag": "公园", "shoppower": 35}, {"name": "西涌(西冲)金福渡假中心", "address": "南澳街道西涌(西冲)3号收费站沙行仔沙滩", "avgprice": -1, "pic": "http://qcloud.dpfile.com/pc/cwK5rYfJgAdGveW5Q2-qCNaQrxZazDNV3PHSegpv5Nb1Q-aWE0d_NZqedSY-mW2EtOnd3gXQdDYlAqlaVaAFeZ0rYYyiRo_EhzufqWWjTjs.jpg", "shopid": 23905904, "lng": 114.51154, "lat": 22.58939, "dishtag": "海滨沙滩", "shoppower": 35}, {"name": "天涯海角", "address": "深南大道9003锦绣中华内景点", "avgprice": -1, "pic": "http://p1.meituan.net/shopmainpic/37198a18a80d676b1c7f533ce4801a6722691.jpg", "shopid": 14986800, "lng": 113.992, "lat": 22.529013, "dishtag": "自然风光", "shoppower": 35}, {"name": "福塔", "address": "竹子林三路35号", "avgprice": -1, "pic": "http://p1.meituan.net/travel/f4718f73ffcaf9e014899de1d624470c2990243.jpg", "shopid": 16917613, "lng": 114.004684, "lat": 22.539858, "dishtag": "名胜古迹", "shoppower": 35}, {"name": "激流勇进", "address": "欢乐谷内", "avgprice": -1, "pic": "http://qcloud.dpfile.com/pc/nyG9KKnB1nid34rd-q4_1Uj8UL2mrkXv0m-RoNtXRK6hwknyKhPrQprPwrvPpf_NtOnd3gXQdDYlAqlaVaAFeZ0rYYyiRo_EhzufqWWjTjs.jpg", "shopid": 16287289, "lng": 113.97912, "lat": 22.543312, "dishtag": "其他景点", "shoppower": 35}, {"name": "深海探奇", "address": "大梅沙东部华侨城内", "avgprice": -1, "pic": "http://p1.meituan.net/travel/129a9ee72754499fa8f3ea6dfa3a9f80154803.jpg", "shopid": 22384595, "lng": 114.30415, "lat": 22.612097, "dishtag": "游乐园", "shoppower": 35}, {"name": "金字塔探秘", "address": "世界之窗内", "avgprice": -1, "pic": "http://p1.meituan.net/travel/cb0d8890bd158c69b168569585822c2142306.jpg", "shopid": 16328079, "lng": 113.97162, "lat": 22.533428, "dishtag": "名胜古迹", "shoppower": 35}, {"name": "水乡小镇", "address": "深南大道9003锦绣中华内景点", "avgprice": -1, "pic": "http://p0.meituan.net/travel/d4a0a1c01b5a3f6bb5ff4690fb4131ee88314.jpg", "shopid": 14986483, "lng": 113.99302, "lat": 22.52982, "dishtag": "观光街区", "shoppower": 35}, {"name": "骑海游艇会", "address": "大梅沙爱琴海c1008", "avgprice": -1, "pic": "http://p1.meituan.net/travel/6fdaf21e51494bc6a47909c23e5e5f2355547.jpg", "shopid": 12591482, "lng": 114.3164, "lat": 22.599, "dishtag": "其他景点", "shoppower": 35}, {"name": "森林攀爬", "address": "欢乐谷内", "avgprice": -1, "pic": "http://p1.meituan.net/shopmainpic/37198a18a80d676b1c7f533ce4801a6722691.jpg", "shopid": 16496007, "lng": 113.98098, "lat": 22.54168, "dishtag": "自然风光", "shoppower": 35}, {"name": "观澜老街公园", "address": "观澜大道", "avgprice": -1, "pic": "http://p0.meituan.net/travel/8244591e94fef56ace2365023cb44b9871219.jpg", "shopid": 10807518, "lng": 114.05425, "lat": 22.715965, "dishtag": "公园", "shoppower": 35}, {"name": "黛梓游自由行专家", "address": "沿河南路东方都会B座1720", "avgprice": -1, "pic": "http://p1.meituan.net/travel/c5afd29bbfb4eaa1d7993750c3a1c0fa48039.jpg", "shopid": 18317350, "lng": 114.14273, "lat": 22.54799, "dishtag": "其他景点", "shoppower": 35}, {"name": "青年城邦园商业街", "address": "和平路312", "avgprice": -1, "pic": "http://p1.meituan.net/travel/7a54e946c7e820c5caa11ce5f64eaebe67722.jpg", "shopid": 16920817, "lng": 114.02191, "lat": 22.651686, "dishtag": "观光街区", "shoppower": 35}, {"name": "艇好玩游艇俱乐部", "address": "海天二路软件产业基地5栋", "avgprice": -1, "pic": "http://p1.meituan.net/travel/0120489b1a8d9ea2e38875e7ea16ac95398271.png", "shopid": 67329540, "lng": 113.93894, "lat": 22.523083, "dishtag": "其他景点", "shoppower": 35}, {"name": "中康公园", "address": "梅林路与环林街交口中康公园", "avgprice": -1, "pic": "http://p1.meituan.net/hoteltdc/6c02107d11debd2187932523b0799500671159.jpg", "shopid": 3687082, "lng": 114.05653, "lat": 22.56903, "dishtag": "公园", "shoppower": 35}, {"name": "坪山客家村", "address": "坪山镇客家村", "avgprice": -1, "pic": "http://p0.meituan.net/travel/79a4f904c4cb431c09f717153d6d07d314107.jpg", "shopid": 17704281, "lng": 114.34218, "lat": 22.68792, "dishtag": "名胜古迹", "shoppower": 35}, {"name": "铁岗公园", "address": "公园路与铁岗水库路交汇处", "avgprice": -1, "pic": "http://p0.meituan.net/travel/e20dba25386e396cd6abaf93858e31ac111747.jpg", "shopid": 5460057, "lng": 113.89068, "lat": 22.599773, "dishtag": "公园", "shoppower": 35}, {"name": "百旺公园", "address": "沙河西路", "avgprice": -1, "pic": "http://p0.meituan.net/travel/1cb45779544038f327f2cf8c5e68a2ec326984.jpg", "shopid": 66532041, "lng": 113.93978, "lat": 22.621094, "dishtag": "公园", "shoppower": 35}, {"name": "后海滨公园", "address": "后海滨路口招商海月花园旁", "avgprice": -1, "pic": "http://p0.meituan.net/travel/f8e4741b3731a4c8ede8ae310c202337302207.jpg", "shopid": 22300554, "lng": 113.93636, "lat": 22.50216, "dishtag": "公园", "shoppower": 35}, {"name": "民治公园", "address": "阳光路28号附近", "avgprice": -1, "pic": "http://p0.meituan.net/travel/91dcfb992d38519435a1b347c1eddb5c123472.jpg", "shopid": 16421990, "lng": 114.03507, "lat": 22.618702, "dishtag": "公园", "shoppower": 35}, {"name": "横岗文体广场", "address": "湛宝路与为民路交口横岗文体广场", "avgprice": -1, "pic": "http://p0.meituan.net/hotel/b2353d3b561d6bd2aef80e25cac05e5e592129.png", "shopid": 6231167, "lng": 114.19438, "lat": 22.644682, "dishtag": "其他景点", "shoppower": 35}, {"name": "东和法治文化主题公园", "address": "沙头角海涛路", "avgprice": -1, "pic": "http://p1.meituan.net/hotel/b318c619c20c7a220ce8ca84943733bf411161.png", "shopid": 4033651, "lng": 114.23496, "lat": 22.54623, "dishtag": "公园", "shoppower": 35}, {"name": "海龟租船", "address": "云松大厦2楼032室", "avgprice": -1, "pic": "http://qcloud.dpfile.com/pc/PgFzDKs35GF1DgKwdPhAvF9kdFMw4pn7h8LxaDgJHcDKztIIMbR82ksDpLlCCe3btOnd3gXQdDYlAqlaVaAFeZ0rYYyiRo_EhzufqWWjTjs.jpg", "shopid": 66983518, "lng": 114.02262, "lat": 22.52973, "dishtag": "其他景点", "shoppower": 35}, {"name": "排牙山", "address": "大鹏镇", "avgprice": -1, "pic": "http://p1.meituan.net/travel/09697472e4985ec79bc4c41fd0242ee9105908.jpg", "shopid": 2570041, "lng": 114.47458, "lat": 22.59749, "dishtag": "自然风光", "shoppower": 35}, {"name": "宝艇游艇俱乐部", "address": "盐葵路9号京基喜来登酒店内", "avgprice": -1, "pic": "http://p1.meituan.net/travel/e1c89dd7cd60c3cfa5b73a0f8065713666541.jpg", "shopid": 6358255, "lng": 114.31426, "lat": 22.597502, "dishtag": "其他景点", "shoppower": 35}, {"name": "凤凰塔", "address": "凤凰岩岭下村口", "avgprice": -1, "pic": "http://p1.meituan.net/travel/e0509f0a8dfa7b9aee993ef8ef7dc06e48387.jpg", "shopid": 10815462, "lng": 113.83673, "lat": 22.691282, "dishtag": "名胜古迹", "shoppower": 35}, {"name": "石厦北七街公园", "address": "石厦大道", "avgprice": -1, "pic": "http://p1.meituan.net/travel/a81f142b13c5f35407c5592fe6e7f9c7803441.jpg", "shopid": 16941971, "lng": 114.05354, "lat": 22.526743, "dishtag": "公园", "shoppower": 35}, {"name": "颐和园", "address": "深南大道9003锦绣中华内景点", "avgprice": -1, "pic": "http://p1.meituan.net/travel/d7d3f6b88150c386a257e6ad7f5d1c44133299.jpg", "shopid": 14987983, "lng": 113.99301, "lat": 22.530804, "dishtag": "自然风光", "shoppower": 35}, {"name": "向西村西区步行街", "address": "向西村", "avgprice": -1, "pic": "http://p1.meituan.net/travel/aed88d7fa39b9502d23e9740e09d5eb352561.jpg", "shopid": 10821469, "lng": 114.12456, "lat": 22.541723, "dishtag": "观光街区", "shoppower": 35}, {"name": "东亚风情商业步行街", "address": "南商路", "avgprice": -1, "pic": "http://p1.meituan.net/travel/f89aee225f4b9d2ee74b692efe268f7254291.jpg", "shopid": 10791422, "lng": 113.927895, "lat": 22.508266, "dishtag": "观光街区", "shoppower": 35}, {"name": "后海天后古庙", "address": "后海村132-1号附近", "avgprice": -1, "pic": "http://p1.meituan.net/travel/43b944974d39aca383d9e8a0c43b162893674.jpg", "shopid": 10789395, "lng": 113.93165, "lat": 22.51083, "dishtag": "名胜古迹", "shoppower": 35}, {"name": "深圳龙华百富汇篮球公园", "address": "建设路和梅龙路交汇处百富汇建材市场", "avgprice": -1, "pic": "http://p0.meituan.net/travel/934f7023b314070db51f07e4df30326b121826.jpg", "shopid": 21838275, "lng": 114.03963, "lat": 22.66103, "dishtag": "公园", "shoppower": 35}, {"name": "打铁工艺表演", "address": "欢乐谷内", "avgprice": -1, "pic": "http://qcloud.dpfile.com/pc/cY_a1ZibwrJY-GaymGa1zfSMKELn76C3QBQVrI7zWSGDgi1DHujpwIe4H8It60-AtOnd3gXQdDYlAqlaVaAFeZ0rYYyiRo_EhzufqWWjTjs.jpg", "shopid": 16151009, "lng": 113.98148, "lat": 22.541737, "dishtag": "其他景点", "shoppower": 35}, {"name": "葵涌公园", "address": "金业路98号葵星工业城旁边", "avgprice": -1, "pic": "http://p1.meituan.net/travel/3d6dca42cc6cc2c0c757b892916aaece50106.jpg", "shopid": 10799130, "lng": 114.428116, "lat": 22.62836, "dishtag": "公园", "shoppower": 35}, {"name": "吉坑世居", "address": "吉坑路", "avgprice": -1, "pic": "http://p1.meituan.net/travel/cd49a17b7446fbdfacb0dc71a5f8b33026337.jpg", "shopid": 10801644, "lng": 114.33339, "lat": 22.788145, "dishtag": "其他景点", "shoppower": 35}, {"name": "时尚户外", "address": "民治大道", "avgprice": -1, "pic": "http://qcloud.dpfile.com/pc/aP1cFXEjKgJTt4PFn5nvd-5G3bM5XgIss1ksi7VHV2tmYHZdSeUjkPyh5-nTQ1W5tOnd3gXQdDYlAqlaVaAFeZ0rYYyiRo_EhzufqWWjTjs.jpg", "shopid": 4717232, "lng": 114.04032, "lat": 22.6168, "dishtag": "其他景点", "shoppower": 35}, {"name": "生态养生园", "address": "洲石公路", "avgprice": -1, "pic": "http://p0.meituan.net/travel/13eeccda98af5c4aa615ff23d937e24559785.jpg", "shopid": 10816020, "lng": 113.90578, "lat": 22.66983, "dishtag": "自然风光", "shoppower": 35}, {"name": "格澜郡商业街", "address": "大和路218号", "avgprice": -1, "pic": "http://p0.meituan.net/travel/1c7685d7264c7619725837ceb16310e046846.jpg", "shopid": 10810878, "lng": 114.04894, "lat": 22.69548, "dishtag": "观光街区", "shoppower": 35}, {"name": "革命烈士陵园", "address": "北环大道", "avgprice": -1, "pic": "http://p1.meituan.net/travel/6cd4ea395301da3f949a1f6cd20d9872101988.jpg", "shopid": 6857891, "lng": 114.06877, "lat": 22.566557, "dishtag": "名胜古迹", "shoppower": 35}, {"name": "丰田谷商业街", "address": "上德路", "avgprice": -1, "pic": "http://p1.meituan.net/shopmainpic/3bdc5bb5cdfd39405b2c7cc188ec1e4913193.jpg", "shopid": 10812056, "lng": 113.83106, "lat": 22.727179, "dishtag": "观光街区", "shoppower": 35}, {"name": "亚马逊丛林穿越", "address": "世界之窗内", "avgprice": -1, "pic": "http://qcloud.dpfile.com/pc/t9WubvBZAyCJgHwRInXmBe0E2N3A1d_Tk_o-YVTKJ4i1tiHoIFh7s4vj3i5usYHJtOnd3gXQdDYlAqlaVaAFeZ0rYYyiRo_EhzufqWWjTjs.jpg", "shopid": 16647809, "lng": 113.968735, "lat": 22.536283, "dishtag": "自然风光", "shoppower": 35}, {"name": "黄田公园", "address": "西乡街道黄田社区居民委员会对面", "avgprice": -1, "pic": "http://p1.meituan.net/travel/8e79ca3f52f155476a4c313dfdd88c0044478.jpg", "shopid": 16279543, "lng": 113.84178, "lat": 22.630154, "dishtag": "公园", "shoppower": 35}, {"name": "基督教福星教会", "address": "福星路162号福星花园大厦412室", "avgprice": -1, "pic": "http://qcloud.dpfile.com/pc/mtvRIKzyBS1yvfo-2ySSRomUWzfyRdg0CFyi-u-zz7I-6nbDDJnfJwPyRaeIkFSNtOnd3gXQdDYlAqlaVaAFeZ0rYYyiRo_EhzufqWWjTjs.jpg", "shopid": 16911945, "lng": 114.08302, "lat": 22.535637, "dishtag": "名胜古迹", "shoppower": 35}, {"name": "东莞会馆", "address": "中山南街81", "avgprice": -1, "pic": "http://qcloud.dpfile.com/pc/WxnI0l_miLq5RH7uNCxJVUa81PuLn7f_pkT2rmmbfR_vUPc0uvPZgapcPaIAQB27tOnd3gXQdDYlAqlaVaAFeZ0rYYyiRo_EhzufqWWjTjs.jpg", "shopid": 58792867, "lng": 113.9203, "lat": 22.543299, "dishtag": "名胜古迹", "shoppower": 35}, {"name": "盐灶码头", "address": "葵涌坝光塩灶村", "avgprice": -1, "pic": "http://p1.meituan.net/travel/3ad430b168d7de1e17c4491d565fc23650196.jpg", "shopid": 5294551, "lng": 114.423, "lat": 22.6308, "dishtag": "名胜古迹", "shoppower": 35}, {"name": "潮汐湿地", "address": "望海路", "avgprice": -1, "pic": "http://p1.meituan.net/travel/a8ab8d91cb51b44952284e0d74567324193465.jpg", "shopid": 66531667, "lng": 113.95184, "lat": 22.493378, "dishtag": "公园", "shoppower": 35}, {"name": "哆梦乐园", "address": "时代城", "avgprice": -1, "pic": "http://p1.meituan.net/travel/f8b61a047541df9d713fe7f120e84c3640791.jpg", "shopid": 18707801, "lng": 113.86835, "lat": 22.56658, "dishtag": "游乐园", "shoppower": 35}, {"name": "弓村社区公园", "address": "弓村锦绣御园对面", "avgprice": -1, "pic": "http://qcloud.dpfile.com/pc/_sm6sKlEhOymiTNhXZdV1cvkTjJ0qjJi6dQGBJDJolAMyUnxe74hwCXsA8S86qdXtOnd3gXQdDYlAqlaVaAFeZ0rYYyiRo_EhzufqWWjTjs.jpg", "shopid": 67215272, "lng": 114.03122, "lat": 22.658974, "dishtag": "公园", "shoppower": 35}, {"name": "蛇口海上世界", "address": "星河路36号", "avgprice": -1, "pic": "http://p0.meituan.net/shopmainpic/21aa845dfbb90a6bb80b7e6c8e18e8cf34912.jpg", "shopid": 69161728, "lng": 113.97356, "lat": 22.53862, "dishtag": "城市观光", "shoppower": 35}, {"name": "香港乐园大包", "address": "华强北振华路", "avgprice": -1, "pic": "http://qcloud.dpfile.com/pc/gVt04GtgvkJb1Y2RzSrG45z4yHgJlODUMKOFWlDwlJxQrkDYcjhmt0p6K-CN4GKZtOnd3gXQdDYlAqlaVaAFeZ0rYYyiRo_EhzufqWWjTjs.jpg", "shopid": 22205874, "lng": 114.08901, "lat": 22.543621, "dishtag": "游乐园", "shoppower": 35}, {"name": "林则徐铜像", "address": "珠江口左岸赤湾左炮台旁", "avgprice": -1, "pic": "http://p1.meituan.net/travel/1c5c4a356d67a6598a6ad4eff1843e31261385.jpg", "shopid": 10791408, "lng": 113.89176, "lat": 22.468397, "dishtag": "自然风光", "shoppower": 35}, {"name": "西门公园", "address": "怀德大村一巷", "avgprice": -1, "pic": "http://p1.meituan.net/travel/808026817bbff10a817e286ac211ddf160868.jpg", "shopid": 10809872, "lng": 113.81595, "lat": 22.666948, "dishtag": "公园", "shoppower": 35}, {"name": "城隍庙", "address": "深南大道9003锦绣中华内景点", "avgprice": -1, "pic": "http://p0.meituan.net/travel/7e49372c9437a49fde935b884e907f5054085.jpg", "shopid": 15626533, "lng": 113.99299, "lat": 22.53039, "dishtag": "名胜古迹", "shoppower": 35}, {"name": "过山车", "address": "东部华侨城大峡谷内", "avgprice": -1, "pic": "http://qcloud.dpfile.com/pc/jybhqx_hy6Vx34j_KSImW-y6CEJeFUFu11m-Fowm_PmmunJDrBxAOxBGYM85OBh1tOnd3gXQdDYlAqlaVaAFeZ0rYYyiRo_EhzufqWWjTjs.jpg", "shopid": 67059852, "lng": 114.30199, "lat": 22.611828, "dishtag": "主题乐园", "shoppower": 35}, {"name": "燕子岭公园", "address": "金牛西路与4号路交叉口", "avgprice": -1, "pic": "http://p0.meituan.net/travel/d7f05dc7b972b3828e4fc9565f19510c75466.jpg", "shopid": 14957601, "lng": 114.3576, "lat": 22.69734, "dishtag": "公园", "shoppower": 35}, {"name": "红岗公园", "address": "泥岗东路", "avgprice": -1, "pic": "http://p0.meituan.net/travel/9df6c52e68ee70fdac147e42fa255081122404.jpg", "shopid": 9798984, "lng": 114.105354, "lat": 22.574802, "dishtag": "公园", "shoppower": 35}, {"name": "创意园图文数码快印", "address": "福强路4001号市文化创意园A座1楼", "avgprice": -1, "pic": "http://qcloud.dpfile.com/pc/HizAsKlPyfMDpZH-RmtdlgDZdc3cJctlK1wkVJbkcbkeXNncvMiXbuED7x1tXqN4tOnd3gXQdDYlAqlaVaAFeZ0rYYyiRo_EhzufqWWjTjs.jpg", "shopid": 21172810, "lng": 114.04498, "lat": 22.51804, "dishtag": "观光街区", "shoppower": 35}, {"name": "南湖街道消防主题公园", "address": "南湖路3005号边", "avgprice": -1, "pic": "http://qcloud.dpfile.com/pc/VdrTgk_PFfRvpY9jLCOTx8ZRR3hWuipdTkLumrW0G_NReOmlC99TbGR2C9Ecoc-ztOnd3gXQdDYlAqlaVaAFeZ0rYYyiRo_EhzufqWWjTjs.jpg", "shopid": 67065034, "lng": 114.12022, "lat": 22.5417, "dishtag": "主题乐园", "shoppower": 35}, {"name": "三月风", "address": "公常路", "avgprice": -1, "pic": "http://p1.meituan.net/travel/b8476bd2888311133fc47d6777c1174457150.jpg", "shopid": 10814680, "lng": 113.922905, "lat": 22.783264, "dishtag": "公园", "shoppower": 35}, {"name": "基督教观澜堂", "address": "观澜街道桂花社区桂新路12号", "avgprice": -1, "pic": "http://p0.meituan.net/travel/c79d716a089179d0154c56fa9718b44585937.jpg", "shopid": 16910105, "lng": 114.06481, "lat": 22.721989, "dishtag": "名胜古迹", "shoppower": 35}, {"name": "天主教圣家堂", "address": "东乐路东乐花园内", "avgprice": -1, "pic": "http://p1.meituan.net/travel/260307cd28a6d231158665edbce70bce99296.jpg", "shopid": 15111659, "lng": 114.140076, "lat": 22.573086, "dishtag": "名胜古迹", "shoppower": 35}, {"name": "激光战车", "address": "欢乐谷内", "avgprice": -1, "pic": "http://p0.meituan.net/travel/545ea3b85296ded1b15ff0d1965e17ed139200.jpg", "shopid": 16905352, "lng": 113.97896, "lat": 22.541204, "dishtag": "其他景点", "shoppower": 35}, {"name": "叶氏宗祠", "address": "滨海南海立交桥", "avgprice": -1, "pic": "http://p0.meituan.net/travel/504854826535c1de3b0cafbf6ca4a94f73055.jpg", "shopid": 16920282, "lng": 113.92853, "lat": 22.524426, "dishtag": "名胜古迹", "shoppower": 35}, {"name": "余石岭公园", "address": "龙翔大道", "avgprice": -1, "pic": "http://p1.meituan.net/travel/d2aa808e0e6cefd83ab2eeef13bea52851556.jpg", "shopid": 6059634, "lng": 114.228714, "lat": 22.701946, "dishtag": "公园", "shoppower": 35}, {"name": "凤凰社区古建筑群", "address": "白凤路", "avgprice": -1, "pic": "http://p1.meituan.net/travel/5b2ee1b5e5ea7247b366e5145aab040072166.jpg", "shopid": 10809372, "lng": 113.83947, "lat": 22.690065, "dishtag": "名胜古迹", "shoppower": 35}, {"name": "11区东西烧", "address": "上沙椰树村十四巷4号101", "avgprice": -1, "pic": "http://qcloud.dpfile.com/pc/Kb90aoOLQGOcT4Oh-VeKsrCPmtHiWL4iL488nGrrsL8dvtM1-my-fcr4D_rZXr3htOnd3gXQdDYlAqlaVaAFeZ0rYYyiRo_EhzufqWWjTjs.jpg", "shopid": 58854140, "lng": 114.02997, "lat": 22.52606, "dishtag": "城市观光", "shoppower": 35}, {"name": "雪山飞龙", "address": "欢乐谷内", "avgprice": -1, "pic": "http://qcloud.dpfile.com/pc/9Cm8R8GtsMHUyS5usP1n3-KjohBuRrJxQdvvQMQRGC-BPpFkhyb3NSoryn05g3JptOnd3gXQdDYlAqlaVaAFeZ0rYYyiRo_EhzufqWWjTjs.jpg", "shopid": 16905353, "lng": 113.98098, "lat": 22.54168, "dishtag": "自然风光", "shoppower": 35}, {"name": "龙秋古井", "address": "水围街4号", "avgprice": -1, "pic": "http://p1.meituan.net/travel/db90bc0801e0ffe7150d52d6684ffbf971987.jpg", "shopid": 10793922, "lng": 114.06429, "lat": 22.52113, "dishtag": "名胜古迹", "shoppower": 35}, {"name": "飞跃美利坚", "address": "世界之窗内", "avgprice": -1, "pic": "http://p1.meituan.net/travel/137ef9b8b8c1f552b46d3097cf99ccae50701.jpg", "shopid": 16188805, "lng": 113.970604, "lat": 22.534683, "dishtag": "其他景点", "shoppower": 35}, {"name": "曾生故居", "address": "坪山街道东纵路石灰陂村", "avgprice": -1, "pic": "http://p0.meituan.net/travel/e6ee08579c0b0a4272640dc16afcbf33337012.jpg", "shopid": 17704245, "lng": 114.33958, "lat": 22.6844, "dishtag": "游乐园", "shoppower": 35}, {"name": "客家土楼", "address": "深南大道9003锦绣中华内景点", "avgprice": -1, "pic": "http://p1.meituan.net/shopmainpic/07cf4d6eaa97ae81280c7a9cbbfab71010820.jpg", "shopid": 14985003, "lng": 113.99199, "lat": 22.529482, "dishtag": "名胜古迹", "shoppower": 35}, {"name": "建利欢乐城", "address": "景田路", "avgprice": -1, "pic": "http://p1.meituan.net/travel/387be8160c77455cd884ae541acabf8d58822.jpg", "shopid": 10792990, "lng": 114.0401, "lat": 22.557919, "dishtag": "游乐园", "shoppower": 35}, {"name": "大鹏革命烈士陵园", "address": "公园路18号", "avgprice": -1, "pic": "http://p0.meituan.net/travel/d3ae697c4481c844fac9a63bda66857c64459.jpg", "shopid": 10799083, "lng": 114.48308, "lat": 22.588907, "dishtag": "名胜古迹", "shoppower": 35}]