[{"communityId": 119461, "comName": "鹏兴花园一期", "districtId": 55, "count": 4, "lng": 114.16349, "lat": 22.564097, "flatTag": 1, "minPrice": 1000}, {"communityId": 140972, "comName": "松园西街", "districtId": 55, "count": 4, "lng": 114.10695, "lat": 22.549822, "flatTag": 1, "minPrice": 2000}, {"communityId": 119986, "comName": "中兴花园", "districtId": 55, "count": 3, "lng": 114.162147, "lat": 22.564599, "flatTag": 1, "minPrice": 1200}, {"communityId": 177025, "comName": "雅住公寓深圳罗芳东湖公园店", "districtId": 55, "count": 3, "lng": 114.145158, "lat": 22.551562, "flatTag": 2, "minPrice": 1800}, {"communityId": 119374, "comName": "桐景花园", "districtId": 55, "count": 2, "lng": 114.17384, "lat": 22.559199, "flatTag": 1, "minPrice": 1100}, {"communityId": 119481, "comName": "松园南小区", "districtId": 55, "count": 2, "lng": 114.111787, "lat": 22.55144, "flatTag": 1, "minPrice": 900}, {"communityId": 119601, "comName": "西湖大厦", "districtId": 55, "count": 2, "lng": 114.109406, "lat": 22.554919, "flatTag": 2, "minPrice": 3000}, {"communityId": 133332, "comName": "春丰公寓（清庆村）", "districtId": 55, "count": 2, "lng": 114.110609, "lat": 22.55106, "flatTag": 2, "minPrice": 2300}, {"communityId": 137382, "comName": "东门瑞鹏大厦", "districtId": 55, "count": 2, "lng": 114.126169, "lat": 22.539183, "flatTag": 1, "minPrice": 700}, {"communityId": 138532, "comName": "松园东五巷", "districtId": 55, "count": 2, "lng": 114.112726, "lat": 22.554284, "flatTag": 1, "minPrice": 2500}, {"communityId": 222259, "comName": "华瑞大厦", "districtId": 55, "count": 2, "lng": 114.10957, "lat": 22.536451, "flatTag": 1, "minPrice": 750}, {"communityId": 236761, "comName": "魔方公寓深圳国贸店", "districtId": 55, "count": 2, "lng": 114.117302, "lat": 22.537449, "flatTag": 2, "minPrice": 2960}, {"communityId": 119328, "comName": "文华花园", "districtId": 55, "count": 1, "lng": 114.136455, "lat": 22.544252, "flatTag": 1, "minPrice": 1320}, {"communityId": 119566, "comName": "西湖小区", "districtId": 55, "count": 1, "lng": 114.10938, "lat": 22.551362, "flatTag": 1, "minPrice": 1700}, {"communityId": 119684, "comName": "菁华楼", "districtId": 55, "count": 1, "lng": 114.110999, "lat": 22.549101, "flatTag": 1, "minPrice": 3000}, {"communityId": 133329, "comName": "深韶商业大厦", "districtId": 55, "count": 1, "lng": 114.112862, "lat": 22.550324, "flatTag": 2, "minPrice": 4000}, {"communityId": 134683, "comName": "金穗居", "districtId": 55, "count": 1, "lng": 114.120823, "lat": 22.583102, "flatTag": 2, "minPrice": 1400}, {"communityId": 135134, "comName": "春华四季花园", "districtId": 55, "count": 1, "lng": 114.054904, "lat": 22.621557, "flatTag": 1, "minPrice": 1332}, {"communityId": 137585, "comName": "37°公寓翠竹店", "districtId": 55, "count": 1, "lng": 114.133395, "lat": 22.551929, "flatTag": 2, "minPrice": 2880}, {"communityId": 138529, "comName": "松园南五巷5栋2层", "districtId": 55, "count": 1, "lng": 114.109572, "lat": 22.551981, "flatTag": 2, "minPrice": 3500}, {"communityId": 161256, "comName": "创客坊公寓", "districtId": 55, "count": 1, "lng": 114.145213, "lat": 22.550836, "flatTag": 2, "minPrice": 2000}, {"communityId": 195877, "comName": "窝潮轻奢社区洪湖店", "districtId": 55, "count": 1, "lng": 114.122287, "lat": 22.564344, "flatTag": 2, "minPrice": 3500}, {"communityId": 207391, "comName": "鸿隆世纪广场", "districtId": 55, "count": 1, "lng": 114.114358, "lat": 22.543335, "flatTag": 1, "minPrice": 750}, {"communityId": 232093, "comName": "魔方公寓深圳大剧院店", "districtId": 55, "count": 1, "lng": 114.111242, "lat": 22.549075, "flatTag": 2, "minPrice": 3750}, {"communityId": 277453, "comName": "艾特公寓", "districtId": 55, "count": 1, "lng": 114.113828, "lat": 22.550036, "flatTag": 2, "minPrice": 2500}, {"communityId": 120595, "comName": "莲花二村", "districtId": 56, "count": 20, "lng": 114.069459, "lat": 22.548968, "flatTag": 1, "minPrice": 1650}, {"communityId": 120660, "comName": "福民新村", "districtId": 56, "count": 17, "lng": 114.068371, "lat": 22.523246, "flatTag": 1, "minPrice": 1960}, {"communityId": 120715, "comName": "金梅花园", "districtId": 56, "count": 9, "lng": 114.0438, "lat": 22.566168, "flatTag": 1, "minPrice": 1000}, {"communityId": 120648, "comName": "香蜜三村", "districtId": 56, "count": 6, "lng": 114.047448, "lat": 22.54613, "flatTag": 1, "minPrice": 1390}, {"communityId": 120768, "comName": "长福花园", "districtId": 56, "count": 6, "lng": 114.071377, "lat": 22.547978, "flatTag": 1, "minPrice": 1500}, {"communityId": 120781, "comName": "香蜜新村", "districtId": 56, "count": 6, "lng": 114.040837, "lat": 22.54861, "flatTag": 1, "minPrice": 1930}, {"communityId": 267721, "comName": "盛夏公寓", "districtId": 56, "count": 6, "lng": 114.095385, "lat": 22.547739, "flatTag": 2, "minPrice": 3800}, {"communityId": 120534, "comName": "梅林一村", "districtId": 56, "count": 5, "lng": 114.037433, "lat": 22.566981, "flatTag": 1, "minPrice": 1960}, {"communityId": 120977, "comName": "皇洲花园", "districtId": 56, "count": 5, "lng": 114.071276, "lat": 22.530751, "flatTag": 1, "minPrice": 2050}, {"communityId": 121034, "comName": "蓝色海云居", "districtId": 56, "count": 5, "lng": 114.051168, "lat": 22.526983, "flatTag": 1, "minPrice": 2000}, {"communityId": 120541, "comName": "益田村", "districtId": 56, "count": 4, "lng": 114.051991, "lat": 22.516197, "flatTag": 1, "minPrice": 1860}, {"communityId": 120557, "comName": "莲花一村", "districtId": 56, "count": 4, "lng": 114.07029, "lat": 22.555068, "flatTag": 1, "minPrice": 2150}, {"communityId": 120569, "comName": "彩福大厦", "districtId": 56, "count": 4, "lng": 114.067191, "lat": 22.535139, "flatTag": 1, "minPrice": 2000}, {"communityId": 120590, "comName": "振业梅苑", "districtId": 56, "count": 4, "lng": 114.059315, "lat": 22.56722, "flatTag": 1, "minPrice": 1930}, {"communityId": 120740, "comName": "梅林三村", "districtId": 56, "count": 4, "lng": 114.053219, "lat": 22.567877, "flatTag": 1, "minPrice": 1960}, {"communityId": 120917, "comName": "竹林花园", "districtId": 56, "count": 4, "lng": 114.009215, "lat": 22.535361, "flatTag": 1, "minPrice": 2020}, {"communityId": 120943, "comName": "明月花园", "districtId": 56, "count": 4, "lng": 114.056038, "lat": 22.524544, "flatTag": 1, "minPrice": 2400}, {"communityId": 121014, "comName": "天威花园", "districtId": 56, "count": 4, "lng": 114.065606, "lat": 22.558059, "flatTag": 1, "minPrice": 1840}, {"communityId": 121015, "comName": "金海丽名居", "districtId": 56, "count": 4, "lng": 114.041861, "lat": 22.516616, "flatTag": 1, "minPrice": 2050}, {"communityId": 211954, "comName": "维越公寓", "districtId": 56, "count": 4, "lng": 114.102278, "lat": 22.560613, "flatTag": 2, "minPrice": 3000}, {"communityId": 120572, "comName": "韵动家园", "districtId": 56, "count": 3, "lng": 114.038815, "lat": 22.526065, "flatTag": 1, "minPrice": 2170}, {"communityId": 120606, "comName": "福莲花园", "districtId": 56, "count": 3, "lng": 114.069896, "lat": 22.547983, "flatTag": 1, "minPrice": 1800}, {"communityId": 120699, "comName": "新洲大厦", "districtId": 56, "count": 3, "lng": 114.048646, "lat": 22.527243, "flatTag": 1, "minPrice": 1750}, {"communityId": 120749, "comName": "金众小区", "districtId": 56, "count": 3, "lng": 114.012654, "lat": 22.537055, "flatTag": 1, "minPrice": 2330}, {"communityId": 120837, "comName": "明月大厦", "districtId": 56, "count": 3, "lng": 114.056423, "lat": 22.524515, "flatTag": 1, "minPrice": 1960}, {"communityId": 120931, "comName": "福贸花园", "districtId": 56, "count": 3, "lng": 114.059001, "lat": 22.569667, "flatTag": 1, "minPrice": 1100}, {"communityId": 120947, "comName": "福源大厦", "districtId": 56, "count": 3, "lng": 114.069382, "lat": 22.532399, "flatTag": 1, "minPrice": 2420}, {"communityId": 120965, "comName": "高科利大厦", "districtId": 56, "count": 3, "lng": 114.072203, "lat": 22.536745, "flatTag": 1, "minPrice": 2700}, {"communityId": 120994, "comName": "益田花园二期", "districtId": 56, "count": 3, "lng": 114.05751, "lat": 22.511951, "flatTag": 1, "minPrice": 1500}, {"communityId": 121000, "comName": "银庄大厦", "districtId": 56, "count": 3, "lng": 114.064422, "lat": 22.521592, "flatTag": 1, "minPrice": 2590}, {"communityId": 121279, "comName": "宝鸿苑", "districtId": 56, "count": 3, "lng": 114.042156, "lat": 22.522962, "flatTag": 1, "minPrice": 1950}, {"communityId": 131112, "comName": "梅林四村", "districtId": 56, "count": 3, "lng": 114.05568, "lat": 22.56831, "flatTag": 1, "minPrice": 2000}, {"communityId": 162740, "comName": "合正园", "districtId": 56, "count": 3, "lng": 114.051574, "lat": 22.563182, "flatTag": 1, "minPrice": 1600}, {"communityId": 174655, "comName": "金田新村", "districtId": 56, "count": 3, "lng": 114.0651, "lat": 22.533805, "flatTag": 1, "minPrice": 1800}, {"communityId": 120536, "comName": "祥云天都世纪", "districtId": 56, "count": 2, "lng": 114.043529, "lat": 22.521062, "flatTag": 1, "minPrice": 2500}, {"communityId": 120543, "comName": "莲花北村", "districtId": 56, "count": 2, "lng": 114.052486, "lat": 22.557318, "flatTag": 1, "minPrice": 2240}, {"communityId": 120634, "comName": "福华新村", "districtId": 56, "count": 2, "lng": 114.06941, "lat": 22.533213, "flatTag": 1, "minPrice": 2330}, {"communityId": 120635, "comName": "红荔村", "districtId": 56, "count": 2, "lng": 114.091339, "lat": 22.547501, "flatTag": 1, "minPrice": 1500}, {"communityId": 120654, "comName": "颐林雅院", "districtId": 56, "count": 2, "lng": 114.058823, "lat": 22.572095, "flatTag": 1, "minPrice": 2330}, {"communityId": 120688, "comName": "市政大院", "districtId": 56, "count": 2, "lng": 114.043307, "lat": 22.547491, "flatTag": 1, "minPrice": 1200}, {"communityId": 120713, "comName": "景西大厦", "districtId": 56, "count": 2, "lng": 114.040493, "lat": 22.557453, "flatTag": 1, "minPrice": 2330}, {"communityId": 120784, "comName": "中康生活区", "districtId": 56, "count": 2, "lng": 114.055439, "lat": 22.568579, "flatTag": 1, "minPrice": 2020}, {"communityId": 120879, "comName": "振业花园", "districtId": 56, "count": 2, "lng": 114.071877, "lat": 22.545742, "flatTag": 1, "minPrice": 1700}, {"communityId": 120890, "comName": "华景花园", "districtId": 56, "count": 2, "lng": 114.058701, "lat": 22.564677, "flatTag": 1, "minPrice": 1700}, {"communityId": 120909, "comName": "新洲花园大厦", "districtId": 56, "count": 2, "lng": 114.048646, "lat": 22.527243, "flatTag": 1, "minPrice": 1550}, {"communityId": 120989, "comName": "东华大厦", "districtId": 56, "count": 2, "lng": 114.070676, "lat": 22.530392, "flatTag": 1, "minPrice": 1500}, {"communityId": 121017, "comName": "福源花园", "districtId": 56, "count": 2, "lng": 114.0558, "lat": 22.50997, "flatTag": 1, "minPrice": 800}, {"communityId": 121282, "comName": "新中苑", "districtId": 56, "count": 2, "lng": 114.042976, "lat": 22.524471, "flatTag": 1, "minPrice": 2000}, {"communityId": 121285, "comName": "机场小区", "districtId": 56, "count": 2, "lng": 114.040584, "lat": 22.549962, "flatTag": 1, "minPrice": 2250}, {"communityId": 121331, "comName": "供电大厦", "districtId": 56, "count": 2, "lng": 114.069498, "lat": 22.530649, "flatTag": 1, "minPrice": 2440}, {"communityId": 134268, "comName": "艺丰花园C区", "districtId": 56, "count": 2, "lng": 114.067915, "lat": 22.569431, "flatTag": 1, "minPrice": 1000}, {"communityId": 137090, "comName": "公路局宿舍", "districtId": 56, "count": 2, "lng": 114.044878, "lat": 22.524774, "flatTag": 1, "minPrice": 1750}, {"communityId": 140610, "comName": "南方国际广场B", "districtId": 56, "count": 2, "lng": 114.056028, "lat": 22.527865, "flatTag": 1, "minPrice": 1000}, {"communityId": 240010, "comName": "魔方公寓深圳福田联合广场店", "districtId": 56, "count": 2, "lng": 114.069223, "lat": 22.529673, "flatTag": 2, "minPrice": 5750}, {"communityId": 251740, "comName": "景田南小区", "districtId": 56, "count": 2, "lng": 114.046007, "lat": 22.555525, "flatTag": 1, "minPrice": 2060}, {"communityId": 256897, "comName": "魔方公寓深圳景田店", "districtId": 56, "count": 2, "lng": 114.045235, "lat": 22.549453, "flatTag": 2, "minPrice": 5280}, {"communityId": 270223, "comName": "城果公寓（景田店）", "districtId": 56, "count": 2, "lng": 114.041199, "lat": 22.55867, "flatTag": 2, "minPrice": 3000}, {"communityId": 272875, "comName": "山水居", "districtId": 56, "count": 2, "lng": 114.043719, "lat": 22.571032, "flatTag": 1, "minPrice": 1870}, {"communityId": 274228, "comName": "金竹花园", "districtId": 56, "count": 2, "lng": 114.008044, "lat": 22.537547, "flatTag": 1, "minPrice": 2150}, {"communityId": 120532, "comName": "彩天名苑", "districtId": 56, "count": 1, "lng": 114.068336, "lat": 22.536866, "flatTag": 1, "minPrice": 2650}, {"communityId": 120549, "comName": "景新花园", "districtId": 56, "count": 1, "lng": 114.047132, "lat": 22.554044, "flatTag": 1, "minPrice": 2050}, {"communityId": 120554, "comName": "碧海红树园", "districtId": 56, "count": 1, "lng": 114.02207, "lat": 22.527269, "flatTag": 1, "minPrice": 2400}, {"communityId": 120602, "comName": "宏轩名庭", "districtId": 56, "count": 1, "lng": 114.050675, "lat": 22.530102, "flatTag": 1, "minPrice": 2700}, {"communityId": 120617, "comName": "碧荔花园", "districtId": 56, "count": 1, "lng": 114.046202, "lat": 22.567268, "flatTag": 1, "minPrice": 2860}, {"communityId": 120625, "comName": "锦林新居", "districtId": 56, "count": 1, "lng": 114.039769, "lat": 22.562366, "flatTag": 1, "minPrice": 2000}, {"communityId": 120636, "comName": "先科花园", "districtId": 56, "count": 1, "lng": 114.061517, "lat": 22.565307, "flatTag": 1, "minPrice": 2260}, {"communityId": 120657, "comName": "景田西小区", "districtId": 56, "count": 1, "lng": 114.042157, "lat": 22.555902, "flatTag": 1, "minPrice": 2400}, {"communityId": 120668, "comName": "景发花园", "districtId": 56, "count": 1, "lng": 114.039077, "lat": 22.551162, "flatTag": 1, "minPrice": 1800}, {"communityId": 120671, "comName": "益田花园", "districtId": 56, "count": 1, "lng": 114.057102, "lat": 22.512917, "flatTag": 1, "minPrice": 2600}, {"communityId": 120692, "comName": "梅兴苑", "districtId": 56, "count": 1, "lng": 114.049056, "lat": 22.566008, "flatTag": 1, "minPrice": 2120}, {"communityId": 120709, "comName": "擎天华庭", "districtId": 56, "count": 1, "lng": 114.044464, "lat": 22.550749, "flatTag": 1, "minPrice": 13500}, {"communityId": 120799, "comName": "嘉隆星苑", "districtId": 56, "count": 1, "lng": 114.031166, "lat": 22.555827, "flatTag": 1, "minPrice": 2100}, {"communityId": 120814, "comName": "香景大厦", "districtId": 56, "count": 1, "lng": 114.039315, "lat": 22.552348, "flatTag": 1, "minPrice": 2520}, {"communityId": 120867, "comName": "众孚大厦", "districtId": 56, "count": 1, "lng": 114.052155, "lat": 22.522561, "flatTag": 1, "minPrice": 2420}, {"communityId": 120876, "comName": "锦州花园", "districtId": 56, "count": 1, "lng": 114.043684, "lat": 22.525977, "flatTag": 1, "minPrice": 1550}, {"communityId": 120886, "comName": "国华大厦", "districtId": 56, "count": 1, "lng": 114.011127, "lat": 22.54738, "flatTag": 1, "minPrice": 2000}, {"communityId": 120896, "comName": "鑫竹苑", "districtId": 56, "count": 1, "lng": 114.017566, "lat": 22.538699, "flatTag": 1, "minPrice": 2280}, {"communityId": 120900, "comName": "绿景花园", "districtId": 56, "count": 1, "lng": 114.042, "lat": 22.5218, "flatTag": 1, "minPrice": 1750}, {"communityId": 120993, "comName": "新洲苑", "districtId": 56, "count": 1, "lng": 114.045113, "lat": 22.524607, "flatTag": 1, "minPrice": 1700}, {"communityId": 121006, "comName": "福宇轩", "districtId": 56, "count": 1, "lng": 114.042752, "lat": 22.528566, "flatTag": 1, "minPrice": 2350}, {"communityId": 121033, "comName": "景苑大厦", "districtId": 56, "count": 1, "lng": 114.046569, "lat": 22.541848, "flatTag": 1, "minPrice": 2470}, {"communityId": 121084, "comName": "美晨苑", "districtId": 56, "count": 1, "lng": 114.060662, "lat": 22.514898, "flatTag": 1, "minPrice": 1500}, {"communityId": 121147, "comName": "香荔新村", "districtId": 56, "count": 1, "lng": 114.046381, "lat": 22.548021, "flatTag": 1, "minPrice": 1950}, {"communityId": 121170, "comName": "益田豪园居", "districtId": 56, "count": 1, "lng": 114.058037, "lat": 22.514732, "flatTag": 1, "minPrice": 2000}, {"communityId": 121269, "comName": "益田村高层", "districtId": 56, "count": 1, "lng": 114.056084, "lat": 22.524188, "flatTag": 1, "minPrice": 2300}, {"communityId": 121374, "comName": "国际村", "districtId": 56, "count": 1, "lng": 114.0728, "lat": 22.53157, "flatTag": 1, "minPrice": 2300}, {"communityId": 121524, "comName": "元盛兴苑", "districtId": 56, "count": 1, "lng": 114.042464, "lat": 22.520377, "flatTag": 1, "minPrice": 1950}, {"communityId": 131110, "comName": "景田南住宅小区", "districtId": 56, "count": 1, "lng": 114.043706, "lat": 22.553631, "flatTag": 1, "minPrice": 1600}, {"communityId": 132640, "comName": "新天世纪商务中心", "districtId": 56, "count": 1, "lng": 114.053466, "lat": 22.520997, "flatTag": 1, "minPrice": 4000}, {"communityId": 134313, "comName": "香蜜湖家属楼小区", "districtId": 56, "count": 1, "lng": 114.039324, "lat": 22.541462, "flatTag": 1, "minPrice": 1500}, {"communityId": 136972, "comName": "芒果公寓", "districtId": 56, "count": 1, "lng": 114.026626, "lat": 22.52595, "flatTag": 2, "minPrice": 1200}, {"communityId": 177553, "comName": "鲁班大厦", "districtId": 56, "count": 1, "lng": 114.044038, "lat": 22.547274, "flatTag": 1, "minPrice": 1500}, {"communityId": 188362, "comName": "彩虹新都", "districtId": 56, "count": 1, "lng": 114.068512, "lat": 22.535942, "flatTag": 1, "minPrice": 2950}, {"communityId": 193849, "comName": "福岗园", "districtId": 56, "count": 1, "lng": 114.064324, "lat": 22.537276, "flatTag": 1, "minPrice": 2400}, {"communityId": 193855, "comName": "长城盛世家园二期", "districtId": 56, "count": 1, "lng": 114.065221, "lat": 22.561119, "flatTag": 1, "minPrice": 2990}, {"communityId": 201175, "comName": "梅林二村", "districtId": 56, "count": 1, "lng": 114.045131, "lat": 22.564387, "flatTag": 1, "minPrice": 1990}, {"communityId": 201592, "comName": "好景豪园", "districtId": 56, "count": 1, "lng": 114.035716, "lat": 22.519064, "flatTag": 1, "minPrice": 2200}, {"communityId": 201643, "comName": "金沙花园", "districtId": 56, "count": 1, "lng": 114.039266, "lat": 22.524303, "flatTag": 1, "minPrice": 3160}, {"communityId": 218128, "comName": "景蜜村", "districtId": 56, "count": 1, "lng": 114.03818, "lat": 22.555206, "flatTag": 1, "minPrice": 2300}, {"communityId": 221821, "comName": "阁林网苑", "districtId": 56, "count": 1, "lng": 114.09338, "lat": 22.546752, "flatTag": 1, "minPrice": 850}, {"communityId": 252226, "comName": "景田怡华苑", "districtId": 56, "count": 1, "lng": 114.037941, "lat": 22.557847, "flatTag": 1, "minPrice": 2210}, {"communityId": 254089, "comName": "安华工业小区", "districtId": 56, "count": 1, "lng": 114.027379, "lat": 22.531333, "flatTag": 1, "minPrice": 3600}, {"communityId": 272884, "comName": "金丰花园", "districtId": 56, "count": 1, "lng": 114.068751, "lat": 22.567921, "flatTag": 1, "minPrice": 1960}, {"communityId": 272923, "comName": "国都高尔夫花园", "districtId": 56, "count": 1, "lng": 114.047029, "lat": 22.53118, "flatTag": 1, "minPrice": 2440}, {"communityId": 274243, "comName": "万景花园", "districtId": 56, "count": 1, "lng": 114.069725, "lat": 22.53088, "flatTag": 1, "minPrice": 2400}, {"communityId": 122100, "comName": "世纪广场", "districtId": 57, "count": 10, "lng": 113.923103, "lat": 22.506109, "flatTag": 1, "minPrice": 1960}, {"communityId": 122093, "comName": "前海明珠", "districtId": 57, "count": 9, "lng": 113.91536, "lat": 22.523341, "flatTag": 1, "minPrice": 1930}, {"communityId": 122673, "comName": "华侨城中旅广场", "districtId": 57, "count": 9, "lng": 113.983846, "lat": 22.536598, "flatTag": 1, "minPrice": 2480}, {"communityId": 122001, "comName": "星海名城", "districtId": 57, "count": 8, "lng": 113.914507, "lat": 22.537156, "flatTag": 1, "minPrice": 1680}, {"communityId": 122101, "comName": "汇宾广场", "districtId": 57, "count": 8, "lng": 113.917638, "lat": 22.509759, "flatTag": 1, "minPrice": 1960}, {"communityId": 208474, "comName": "京光海景花园", "districtId": 57, "count": 8, "lng": 113.930137, "lat": 22.505991, "flatTag": 1, "minPrice": 1930}, {"communityId": 122121, "comName": "雷圳碧榕湾", "districtId": 57, "count": 7, "lng": 113.905609, "lat": 22.510996, "flatTag": 1, "minPrice": 1840}, {"communityId": 123296, "comName": "南园村（南山）", "districtId": 57, "count": 7, "lng": 113.91769, "lat": 22.517955, "flatTag": 1, "minPrice": 1800}, {"communityId": 122106, "comName": "太子山庄", "districtId": 57, "count": 6, "lng": 113.906167, "lat": 22.510881, "flatTag": 1, "minPrice": 1790}, {"communityId": 122714, "comName": "粤海大厦", "districtId": 57, "count": 6, "lng": 113.927399, "lat": 22.512947, "flatTag": 1, "minPrice": 2300}, {"communityId": 122040, "comName": "雅仕荔景苑", "districtId": 57, "count": 5, "lng": 113.927137, "lat": 22.510513, "flatTag": 1, "minPrice": 2460}, {"communityId": 143521, "comName": "星海名城一期", "districtId": 57, "count": 5, "lng": 113.912963, "lat": 22.536131, "flatTag": 1, "minPrice": 1750}, {"communityId": 197353, "comName": "窝潮轻奢社区南头店", "districtId": 57, "count": 5, "lng": 113.922132, "lat": 22.541975, "flatTag": 2, "minPrice": 2600}, {"communityId": 226675, "comName": "康乐园", "districtId": 57, "count": 5, "lng": 113.926217, "lat": 22.517155, "flatTag": 1, "minPrice": 2150}, {"communityId": 226681, "comName": "世界花园", "districtId": 57, "count": 5, "lng": 113.974172, "lat": 22.53943, "flatTag": 1, "minPrice": 2150}, {"communityId": 251734, "comName": "龙泰轩", "districtId": 57, "count": 5, "lng": 113.925993, "lat": 22.518948, "flatTag": 1, "minPrice": 2120}, {"communityId": 122206, "comName": "海典居", "districtId": 57, "count": 4, "lng": 113.927379, "lat": 22.51752, "flatTag": 1, "minPrice": 2330}, {"communityId": 122207, "comName": "沙河荔园新村", "districtId": 57, "count": 4, "lng": 113.97598, "lat": 22.540516, "flatTag": 1, "minPrice": 1700}, {"communityId": 122342, "comName": "景园大厦", "districtId": 57, "count": 4, "lng": 113.930019, "lat": 22.495365, "flatTag": 1, "minPrice": 1800}, {"communityId": 122371, "comName": "桃花园", "districtId": 57, "count": 4, "lng": 113.92451, "lat": 22.533398, "flatTag": 1, "minPrice": 1930}, {"communityId": 122719, "comName": "汇滨广场", "districtId": 57, "count": 4, "lng": 113.917638, "lat": 22.509759, "flatTag": 1, "minPrice": 1960}, {"communityId": 135126, "comName": "华府国际", "districtId": 57, "count": 4, "lng": 113.914538, "lat": 22.552697, "flatTag": 1, "minPrice": 1782}, {"communityId": 135207, "comName": "深圳市南山区大冲新城花园", "districtId": 57, "count": 4, "lng": 113.956458, "lat": 22.543797, "flatTag": 1, "minPrice": 5800}, {"communityId": 136149, "comName": "向南东村", "districtId": 57, "count": 4, "lng": 113.92032, "lat": 22.523302, "flatTag": 1, "minPrice": 1500}, {"communityId": 141179, "comName": "豪园小区", "districtId": 57, "count": 4, "lng": 113.92614, "lat": 22.528411, "flatTag": 1, "minPrice": 2020}, {"communityId": 141363, "comName": "南头古城", "districtId": 57, "count": 4, "lng": 113.921199, "lat": 22.542909, "flatTag": 1, "minPrice": 1550}, {"communityId": 173557, "comName": "鹿屿6期（双人间）", "districtId": 57, "count": 4, "lng": 113.957535, "lat": 22.544324, "flatTag": 2, "minPrice": 1500}, {"communityId": 195397, "comName": "城家公寓深圳南山地铁站店", "districtId": 57, "count": 4, "lng": 113.928111, "lat": 22.522369, "flatTag": 2, "minPrice": 3700}, {"communityId": 196300, "comName": "桃源村二期", "districtId": 57, "count": 4, "lng": 113.980456, "lat": 22.55799, "flatTag": 1, "minPrice": 1770}, {"communityId": 236047, "comName": "蛇口边检生活小区", "districtId": 57, "count": 4, "lng": 113.919351, "lat": 22.499502, "flatTag": 1, "minPrice": 1900}, {"communityId": 240973, "comName": "粤海综合楼", "districtId": 57, "count": 4, "lng": 113.930319, "lat": 22.512771, "flatTag": 1, "minPrice": 1930}, {"communityId": 270793, "comName": "渔港大楼", "districtId": 57, "count": 4, "lng": 113.932137, "lat": 22.486233, "flatTag": 1, "minPrice": 1900}, {"communityId": 283717, "comName": "招商综合楼", "districtId": 57, "count": 4, "lng": 113.932041, "lat": 22.497797, "flatTag": 1, "minPrice": 1250}, {"communityId": 122013, "comName": "星海名城二期", "districtId": 57, "count": 3, "lng": 113.914434, "lat": 22.536917, "flatTag": 1, "minPrice": 2240}, {"communityId": 122074, "comName": "麒麟花园", "districtId": 57, "count": 3, "lng": 113.931778, "lat": 22.545874, "flatTag": 1, "minPrice": 1700}, {"communityId": 122103, "comName": "海尚国际", "districtId": 57, "count": 3, "lng": 113.923999, "lat": 22.486014, "flatTag": 1, "minPrice": 2330}, {"communityId": 122174, "comName": "广博星海华庭", "districtId": 57, "count": 3, "lng": 113.935246, "lat": 22.495105, "flatTag": 1, "minPrice": 2430}, {"communityId": 131109, "comName": "大冲城市花园", "districtId": 57, "count": 3, "lng": 113.955443, "lat": 22.542071, "flatTag": 1, "minPrice": 2680}, {"communityId": 131248, "comName": "趣客公寓", "districtId": 57, "count": 3, "lng": 113.950254, "lat": 22.568868, "flatTag": 2, "minPrice": 2380}, {"communityId": 136091, "comName": "康乐村小区", "districtId": 57, "count": 3, "lng": 113.918246, "lat": 22.526819, "flatTag": 1, "minPrice": 1840}, {"communityId": 139772, "comName": "U客公寓深圳科技园店", "districtId": 57, "count": 3, "lng": 113.945889, "lat": 22.555039, "flatTag": 2, "minPrice": 1800}, {"communityId": 162744, "comName": "暖寓（西丽院子）", "districtId": 57, "count": 3, "lng": 113.95179, "lat": 22.576768, "flatTag": 2, "minPrice": 2380}, {"communityId": 165224, "comName": "优家国际青年社区", "districtId": 57, "count": 3, "lng": 113.960832, "lat": 22.579809, "flatTag": 2, "minPrice": 2980}, {"communityId": 170275, "comName": "蓝山里", "districtId": 57, "count": 3, "lng": 113.991296, "lat": 22.542908, "flatTag": 2, "minPrice": 4480}, {"communityId": 183076, "comName": "丽康苑C栋", "districtId": 57, "count": 3, "lng": 113.977829, "lat": 22.622419, "flatTag": 2, "minPrice": 800}, {"communityId": 184918, "comName": "蛇口统建楼", "districtId": 57, "count": 3, "lng": 113.93422, "lat": 22.492417, "flatTag": 1, "minPrice": 2150}, {"communityId": 192655, "comName": "海昌阁", "districtId": 57, "count": 3, "lng": 113.925964, "lat": 22.518307, "flatTag": 1, "minPrice": 2050}, {"communityId": 221884, "comName": "鹿屿轻寓（科技园店）", "districtId": 57, "count": 3, "lng": 113.939288, "lat": 22.542773, "flatTag": 2, "minPrice": 1300}, {"communityId": 122024, "comName": "信和自由广场", "districtId": 57, "count": 2, "lng": 113.925392, "lat": 22.50719, "flatTag": 1, "minPrice": 2050}, {"communityId": 122031, "comName": "前海花园", "districtId": 57, "count": 2, "lng": 113.911865, "lat": 22.532375, "flatTag": 1, "minPrice": 2090}, {"communityId": 122095, "comName": "云海天城世家", "districtId": 57, "count": 2, "lng": 113.932277, "lat": 22.513765, "flatTag": 1, "minPrice": 2130}, {"communityId": 122105, "comName": "金晖大厦", "districtId": 57, "count": 2, "lng": 113.92498, "lat": 22.509278, "flatTag": 1, "minPrice": 2120}, {"communityId": 122126, "comName": "莲城花园", "districtId": 57, "count": 2, "lng": 113.926253, "lat": 22.545943, "flatTag": 1, "minPrice": 1500}, {"communityId": 122156, "comName": "钜建大厦", "districtId": 57, "count": 2, "lng": 113.929, "lat": 22.5121, "flatTag": 1, "minPrice": 2210}, {"communityId": 122340, "comName": "金田花园", "districtId": 57, "count": 2, "lng": 113.921283, "lat": 22.521774, "flatTag": 1, "minPrice": 2520}, {"communityId": 122411, "comName": "世界花园樱花居", "districtId": 57, "count": 2, "lng": 113.975643, "lat": 22.538252, "flatTag": 1, "minPrice": 1980}, {"communityId": 122443, "comName": "天海花园", "districtId": 57, "count": 2, "lng": 113.934177, "lat": 22.512238, "flatTag": 1, "minPrice": 2330}, {"communityId": 122502, "comName": "花园城", "districtId": 57, "count": 2, "lng": 113.922786, "lat": 22.503311, "flatTag": 1, "minPrice": 1800}, {"communityId": 122532, "comName": "天马综合楼", "districtId": 57, "count": 2, "lng": 113.917964, "lat": 22.516354, "flatTag": 1, "minPrice": 2330}, {"communityId": 122573, "comName": "文德福花园", "districtId": 57, "count": 2, "lng": 113.932807, "lat": 22.50561, "flatTag": 1, "minPrice": 2630}, {"communityId": 122703, "comName": "常丰花园", "districtId": 57, "count": 2, "lng": 113.922851, "lat": 22.532236, "flatTag": 1, "minPrice": 2180}, {"communityId": 135205, "comName": "深圳市南山区大冲城市花园", "districtId": 57, "count": 2, "lng": 113.956464, "lat": 22.544433, "flatTag": 1, "minPrice": 2400}, {"communityId": 143225, "comName": "深海壹号", "districtId": 57, "count": 2, "lng": 113.946322, "lat": 22.585512, "flatTag": 2, "minPrice": 2180}, {"communityId": 189049, "comName": "南园欣荔苑", "districtId": 57, "count": 2, "lng": 113.919384, "lat": 22.501874, "flatTag": 1, "minPrice": 1590}, {"communityId": 239692, "comName": "国兴苑", "districtId": 57, "count": 2, "lng": 113.919818, "lat": 22.528537, "flatTag": 1, "minPrice": 2180}, {"communityId": 239740, "comName": "魔方公寓深圳四海公园店", "districtId": 57, "count": 2, "lng": 113.927554, "lat": 22.493031, "flatTag": 2, "minPrice": 3500}, {"communityId": 240013, "comName": "魔方公寓深圳南山科技园店", "districtId": 57, "count": 2, "lng": 113.929757, "lat": 22.540765, "flatTag": 2, "minPrice": 5280}, {"communityId": 246643, "comName": "平山村184栋", "districtId": 57, "count": 2, "lng": 113.967852, "lat": 22.584443, "flatTag": 2, "minPrice": 1450}, {"communityId": 251737, "comName": "御海新苑", "districtId": 57, "count": 2, "lng": 113.913945, "lat": 22.530056, "flatTag": 1, "minPrice": 2370}, {"communityId": 252232, "comName": "海王大厦", "districtId": 57, "count": 2, "lng": 113.926419, "lat": 22.515858, "flatTag": 1, "minPrice": 1960}, {"communityId": 284452, "comName": "前海凯御", "districtId": 57, "count": 2, "lng": 113.911514, "lat": 22.527783, "flatTag": 1, "minPrice": 7500}, {"communityId": 122000, "comName": "星海名城五期", "districtId": 57, "count": 1, "lng": 113.9136, "lat": 22.54237, "flatTag": 1, "minPrice": 2830}, {"communityId": 122008, "comName": "诺德假日花园", "districtId": 57, "count": 1, "lng": 113.904317, "lat": 22.510307, "flatTag": 1, "minPrice": 1962}, {"communityId": 122009, "comName": "万象新园", "districtId": 57, "count": 1, "lng": 113.92738, "lat": 22.524515, "flatTag": 1, "minPrice": 2550}, {"communityId": 122012, "comName": "现代城华庭", "districtId": 57, "count": 1, "lng": 113.925221, "lat": 22.51708, "flatTag": 1, "minPrice": 2930}, {"communityId": 122017, "comName": "英达钰龙园", "districtId": 57, "count": 1, "lng": 113.921381, "lat": 22.539196, "flatTag": 1, "minPrice": 2790}, {"communityId": 122041, "comName": "滨海之窗", "districtId": 57, "count": 1, "lng": 113.935764, "lat": 22.519608, "flatTag": 1, "minPrice": 23000}, {"communityId": 122053, "comName": "天朗风清", "districtId": 57, "count": 1, "lng": 113.912055, "lat": 22.529222, "flatTag": 1, "minPrice": 1990}, {"communityId": 122055, "comName": "金海岸", "districtId": 57, "count": 1, "lng": 113.928115, "lat": 22.514446, "flatTag": 1, "minPrice": 2230}, {"communityId": 122069, "comName": "泛海拉菲花园", "districtId": 57, "count": 1, "lng": 113.894997, "lat": 22.498842, "flatTag": 1, "minPrice": 8000}, {"communityId": 122123, "comName": "椰风海岸", "districtId": 57, "count": 1, "lng": 113.911696, "lat": 22.531455, "flatTag": 1, "minPrice": 2180}, {"communityId": 122127, "comName": "东方美地苑", "districtId": 57, "count": 1, "lng": 113.919203, "lat": 22.538285, "flatTag": 1, "minPrice": 2150}, {"communityId": 122145, "comName": "山海翠庐", "districtId": 57, "count": 1, "lng": 113.905731, "lat": 22.509366, "flatTag": 1, "minPrice": 2280}, {"communityId": 122176, "comName": "仓前锦福苑", "districtId": 57, "count": 1, "lng": 113.919992, "lat": 22.52733, "flatTag": 1, "minPrice": 2350}, {"communityId": 122193, "comName": "时代骄子大厦", "districtId": 57, "count": 1, "lng": 113.925453, "lat": 22.52837, "flatTag": 1, "minPrice": 2430}, {"communityId": 122210, "comName": "如意家园", "districtId": 57, "count": 1, "lng": 113.922061, "lat": 22.532235, "flatTag": 1, "minPrice": 3070}, {"communityId": 122219, "comName": "后海名苑居", "districtId": 57, "count": 1, "lng": 113.931815, "lat": 22.509774, "flatTag": 1, "minPrice": 2240}, {"communityId": 122226, "comName": "华彩花园", "districtId": 57, "count": 1, "lng": 113.919919, "lat": 22.497322, "flatTag": 1, "minPrice": 1550}, {"communityId": 122256, "comName": "新浩城花园", "districtId": 57, "count": 1, "lng": 113.995659, "lat": 22.531856, "flatTag": 1, "minPrice": 2500}, {"communityId": 122308, "comName": "矩建大厦", "districtId": 57, "count": 1, "lng": 113.929, "lat": 22.5121, "flatTag": 1, "minPrice": 1750}, {"communityId": 122322, "comName": "后海花园", "districtId": 57, "count": 1, "lng": 113.931225, "lat": 22.512712, "flatTag": 1, "minPrice": 2300}, {"communityId": 122336, "comName": "金桃园大厦", "districtId": 57, "count": 1, "lng": 113.918317, "lat": 22.532238, "flatTag": 1, "minPrice": 2330}, {"communityId": 122380, "comName": "中信海文花园", "districtId": 57, "count": 1, "lng": 113.9316, "lat": 22.52377, "flatTag": 1, "minPrice": 2412}, {"communityId": 122435, "comName": "鸿瑞花园三期", "districtId": 57, "count": 1, "lng": 113.927057, "lat": 22.520579, "flatTag": 1, "minPrice": 1500}, {"communityId": 122476, "comName": "怡海花园", "districtId": 57, "count": 1, "lng": 113.930819, "lat": 22.50766, "flatTag": 1, "minPrice": 2020}, {"communityId": 122584, "comName": "阳光海景豪苑", "districtId": 57, "count": 1, "lng": 113.934361, "lat": 22.542596, "flatTag": 1, "minPrice": 2210}, {"communityId": 122685, "comName": "山东大厦", "districtId": 57, "count": 1, "lng": 113.928406, "lat": 22.521874, "flatTag": 1, "minPrice": 3350}, {"communityId": 122859, "comName": "丁头村", "districtId": 57, "count": 1, "lng": 113.916764, "lat": 22.52667, "flatTag": 1, "minPrice": 2400}, {"communityId": 132528, "comName": "大冲都市花园", "districtId": 57, "count": 1, "lng": 113.952799, "lat": 22.544203, "flatTag": 1, "minPrice": 1300}, {"communityId": 133702, "comName": "宜家公寓(大学城)", "districtId": 57, "count": 1, "lng": 113.969558, "lat": 22.584885, "flatTag": 2, "minPrice": 1400}, {"communityId": 134760, "comName": "佳兆业前海广场", "districtId": 57, "count": 1, "lng": 113.886644, "lat": 22.49399, "flatTag": 1, "minPrice": 1400}, {"communityId": 135204, "comName": "信江城市公寓", "districtId": 57, "count": 1, "lng": 113.956214, "lat": 22.578305, "flatTag": 2, "minPrice": 2100}, {"communityId": 136444, "comName": "奇寓", "districtId": 57, "count": 1, "lng": 113.921346, "lat": 22.542026, "flatTag": 2, "minPrice": 2500}, {"communityId": 138322, "comName": "栖栖里公寓", "districtId": 57, "count": 1, "lng": 113.926406, "lat": 22.487716, "flatTag": 2, "minPrice": 3800}, {"communityId": 139265, "comName": "FORU家青年公寓", "districtId": 57, "count": 1, "lng": 113.92919, "lat": 22.531778, "flatTag": 2, "minPrice": 3500}, {"communityId": 143432, "comName": "留仙苑", "districtId": 57, "count": 1, "lng": 113.95379, "lat": 22.579201, "flatTag": 1, "minPrice": 1100}, {"communityId": 150720, "comName": "新城2栋1E", "districtId": 57, "count": 1, "lng": 113.95165, "lat": 22.542537, "flatTag": 2, "minPrice": 1300}, {"communityId": 179782, "comName": "南海城中心小区", "districtId": 57, "count": 1, "lng": 113.92279, "lat": 22.518283, "flatTag": 1, "minPrice": 2150}, {"communityId": 183031, "comName": "丽康苑A栋", "districtId": 57, "count": 1, "lng": 113.977847, "lat": 22.622603, "flatTag": 2, "minPrice": 1100}, {"communityId": 183061, "comName": "丽康苑B栋", "districtId": 57, "count": 1, "lng": 113.977868, "lat": 22.622508, "flatTag": 2, "minPrice": 1200}, {"communityId": 185119, "comName": "大陆庄园华昌阁", "districtId": 57, "count": 1, "lng": 113.917583, "lat": 22.52762, "flatTag": 1, "minPrice": 1830}, {"communityId": 185623, "comName": "丽康苑D栋", "districtId": 57, "count": 1, "lng": 113.978014, "lat": 22.622555, "flatTag": 2, "minPrice": 1200}, {"communityId": 185893, "comName": "大陆庄园富景阁", "districtId": 57, "count": 1, "lng": 113.917426, "lat": 22.527585, "flatTag": 1, "minPrice": 2530}, {"communityId": 187252, "comName": "鹿屿7期", "districtId": 57, "count": 1, "lng": 113.955772, "lat": 22.543756, "flatTag": 2, "minPrice": 1800}, {"communityId": 187984, "comName": "海岸明珠", "districtId": 57, "count": 1, "lng": 113.931331, "lat": 22.515619, "flatTag": 1, "minPrice": 2000}, {"communityId": 193846, "comName": "鼎太风华二期", "districtId": 57, "count": 1, "lng": 113.911749, "lat": 22.520553, "flatTag": 1, "minPrice": 2350}, {"communityId": 200245, "comName": "南海明珠", "districtId": 57, "count": 1, "lng": 113.927822, "lat": 22.52587, "flatTag": 1, "minPrice": 1800}, {"communityId": 215962, "comName": "蓝漪花园", "districtId": 57, "count": 1, "lng": 113.927869, "lat": 22.485352, "flatTag": 1, "minPrice": 2670}, {"communityId": 226111, "comName": "中海丽苑", "districtId": 57, "count": 1, "lng": 113.920172, "lat": 22.515695, "flatTag": 1, "minPrice": 2130}, {"communityId": 240967, "comName": "鹏都大厦", "districtId": 57, "count": 1, "lng": 113.928094, "lat": 22.52234, "flatTag": 1, "minPrice": 2520}, {"communityId": 241594, "comName": "永乐新村", "districtId": 57, "count": 1, "lng": 113.936438, "lat": 22.487936, "flatTag": 1, "minPrice": 1390}, {"communityId": 252223, "comName": "广物花园", "districtId": 57, "count": 1, "lng": 113.934581, "lat": 22.494326, "flatTag": 1, "minPrice": 2950}, {"communityId": 252238, "comName": "侨州花园", "districtId": 57, "count": 1, "lng": 113.966406, "lat": 22.54273, "flatTag": 1, "minPrice": 2790}, {"communityId": 263179, "comName": "鹿屿9期（科苑店）", "districtId": 57, "count": 1, "lng": 113.94939, "lat": 22.545984, "flatTag": 2, "minPrice": 2680}, {"communityId": 264583, "comName": "BABY公寓大冲店", "districtId": 57, "count": 1, "lng": 113.95321, "lat": 22.543571, "flatTag": 2, "minPrice": 1600}, {"communityId": 273361, "comName": "FORU家青年公寓", "districtId": 57, "count": 1, "lng": 113.929311, "lat": 22.531781, "flatTag": 2, "minPrice": 3300}, {"communityId": 220465, "comName": "中海半山溪谷", "districtId": 58, "count": 1, "lng": 114.24105, "lat": 22.585685, "flatTag": 1, "minPrice": 3000}, {"communityId": 210523, "comName": "港铁天颂", "districtId": 3400, "count": 25, "lng": 114.012468, "lat": 22.644783, "flatTag": 1, "minPrice": 1350}, {"communityId": 123724, "comName": "福中福花园", "districtId": 59, "count": 19, "lng": 113.872542, "lat": 22.563691, "flatTag": 1, "minPrice": 1590}, {"communityId": 215947, "comName": "滢水山庄", "districtId": 3400, "count": 16, "lng": 114.051344, "lat": 22.602475, "flatTag": 1, "minPrice": 1500}, {"communityId": 123675, "comName": "绿海名居", "districtId": 59, "count": 15, "lng": 113.860049, "lat": 22.562343, "flatTag": 1, "minPrice": 1400}, {"communityId": 123609, "comName": "富盈门", "districtId": 59, "count": 13, "lng": 113.889988, "lat": 22.586843, "flatTag": 1, "minPrice": 1380}, {"communityId": 139945, "comName": "苏鹿公寓（固戍店）", "districtId": 59, "count": 12, "lng": 113.851056, "lat": 22.601214, "flatTag": 2, "minPrice": 800}, {"communityId": 218161, "comName": "灵芝新村", "districtId": 59, "count": 11, "lng": 113.909596, "lat": 22.565815, "flatTag": 1, "minPrice": 1500}, {"communityId": 131403, "comName": "世纪春城", "districtId": 3400, "count": 10, "lng": 114.033395, "lat": 22.62675, "flatTag": 1, "minPrice": 1750}, {"communityId": 190918, "comName": "桃源居", "districtId": 59, "count": 10, "lng": 113.864599, "lat": 22.614712, "flatTag": 1, "minPrice": 1030}, {"communityId": 192079, "comName": "美万佳酒店公寓", "districtId": 59, "count": 10, "lng": 113.810553, "lat": 22.675895, "flatTag": 2, "minPrice": 980}, {"communityId": 123612, "comName": "深业新岸线", "districtId": 59, "count": 9, "lng": 113.874355, "lat": 22.558432, "flatTag": 1, "minPrice": 1830}, {"communityId": 123646, "comName": "槟城西岸", "districtId": 59, "count": 9, "lng": 113.85821, "lat": 22.570386, "flatTag": 1, "minPrice": 1960}, {"communityId": 158316, "comName": "美丽365花园", "districtId": 3400, "count": 9, "lng": 114.031683, "lat": 22.663298, "flatTag": 1, "minPrice": 1470}, {"communityId": 216052, "comName": "新锦安雅园", "districtId": 59, "count": 9, "lng": 113.904221, "lat": 22.549431, "flatTag": 1, "minPrice": 1930}, {"communityId": 239863, "comName": "礼寓机场东店二期", "districtId": 59, "count": 9, "lng": 113.825186, "lat": 22.652598, "flatTag": 2, "minPrice": 1630}, {"communityId": 256873, "comName": "天骄世家", "districtId": 59, "count": 9, "lng": 113.891256, "lat": 22.586756, "flatTag": 1, "minPrice": 1500}, {"communityId": 123723, "comName": "兴华花园", "districtId": 59, "count": 8, "lng": 113.86652, "lat": 22.578972, "flatTag": 1, "minPrice": 1870}, {"communityId": 216520, "comName": "西城雅筑", "districtId": 59, "count": 8, "lng": 113.87742, "lat": 22.56289, "flatTag": 1, "minPrice": 1770}, {"communityId": 123794, "comName": "达海花园", "districtId": 59, "count": 7, "lng": 113.88325, "lat": 22.563991, "flatTag": 1, "minPrice": 1700}, {"communityId": 131580, "comName": "优品建筑", "districtId": 3400, "count": 7, "lng": 114.021355, "lat": 22.647707, "flatTag": 1, "minPrice": 1400}, {"communityId": 239218, "comName": "宝海花园", "districtId": 59, "count": 7, "lng": 113.90286, "lat": 22.557737, "flatTag": 1, "minPrice": 1330}, {"communityId": 242365, "comName": "星河传奇", "districtId": 3400, "count": 7, "lng": 114.020216, "lat": 22.632662, "flatTag": 1, "minPrice": 1440}, {"communityId": 123617, "comName": "碧海名园", "districtId": 59, "count": 6, "lng": 113.864515, "lat": 22.586336, "flatTag": 1, "minPrice": 1860}, {"communityId": 123619, "comName": "宝民花园", "districtId": 59, "count": 6, "lng": 113.890487, "lat": 22.576882, "flatTag": 1, "minPrice": 1500}, {"communityId": 123882, "comName": "明月花都", "districtId": 59, "count": 6, "lng": 113.869499, "lat": 22.580139, "flatTag": 1, "minPrice": 1400}, {"communityId": 152664, "comName": "Foru家青年公寓", "districtId": 59, "count": 6, "lng": 113.812056, "lat": 22.69071, "flatTag": 2, "minPrice": 1280}, {"communityId": 186181, "comName": "碧涛居", "districtId": 59, "count": 6, "lng": 113.915169, "lat": 22.571797, "flatTag": 1, "minPrice": 1470}, {"communityId": 207382, "comName": "玖寓", "districtId": 59, "count": 6, "lng": 113.888593, "lat": 22.585014, "flatTag": 2, "minPrice": 2080}, {"communityId": 210043, "comName": "锦绣公寓", "districtId": 59, "count": 6, "lng": 113.78852, "lat": 22.74096, "flatTag": 2, "minPrice": 800}, {"communityId": 215944, "comName": "坪洲新村", "districtId": 59, "count": 6, "lng": 113.863724, "lat": 22.558908, "flatTag": 1, "minPrice": 1770}, {"communityId": 245581, "comName": "开成一家A栋", "districtId": 59, "count": 6, "lng": 113.834798, "lat": 22.717819, "flatTag": 2, "minPrice": 1400}, {"communityId": 251695, "comName": "保利悦都花园", "districtId": 3400, "count": 6, "lng": 114.031846, "lat": 22.66922, "flatTag": 1, "minPrice": 1310}, {"communityId": 252220, "comName": "富源花园", "districtId": 59, "count": 6, "lng": 113.896429, "lat": 22.557945, "flatTag": 1, "minPrice": 1840}, {"communityId": 120540, "comName": "海滨广场", "districtId": 56, "count": 5, "lng": 114.06801, "lat": 22.526211, "flatTag": 1, "minPrice": 1810}, {"communityId": 123603, "comName": "丽晶国际", "districtId": 59, "count": 5, "lng": 113.890269, "lat": 22.555762, "flatTag": 1, "minPrice": 1930}, {"communityId": 123636, "comName": "富通蟠龙居", "districtId": 59, "count": 5, "lng": 113.87021, "lat": 22.575314, "flatTag": 1, "minPrice": 1840}, {"communityId": 123791, "comName": "滨海春城", "districtId": 59, "count": 5, "lng": 113.88819, "lat": 22.568981, "flatTag": 1, "minPrice": 1720}, {"communityId": 131153, "comName": "合正汇一城", "districtId": 59, "count": 5, "lng": 113.864293, "lat": 22.576037, "flatTag": 1, "minPrice": 1700}, {"communityId": 142618, "comName": "18Plus公寓（后亭店）", "districtId": 59, "count": 5, "lng": 113.826849, "lat": 22.752649, "flatTag": 2, "minPrice": 1500}, {"communityId": 195331, "comName": "城家公寓深圳松岗地铁站店", "districtId": 59, "count": 5, "lng": 113.833903, "lat": 22.768879, "flatTag": 2, "minPrice": 1280}, {"communityId": 278464, "comName": "橘子公寓", "districtId": 59, "count": 5, "lng": 113.86203, "lat": 22.579518, "flatTag": 2, "minPrice": 1300}, {"communityId": 123714, "comName": "御景湾", "districtId": 59, "count": 4, "lng": 113.874719, "lat": 22.56256, "flatTag": 1, "minPrice": 1440}, {"communityId": 123779, "comName": "绿海名苑", "districtId": 59, "count": 4, "lng": 113.866795, "lat": 22.576889, "flatTag": 1, "minPrice": 1920}, {"communityId": 135132, "comName": "日出印象花园", "districtId": 3400, "count": 4, "lng": 114.027762, "lat": 22.631472, "flatTag": 1, "minPrice": 1770}, {"communityId": 135547, "comName": "V客青年公寓桥头站", "districtId": 59, "count": 4, "lng": 113.804967, "lat": 22.683489, "flatTag": 2, "minPrice": 1780}, {"communityId": 137541, "comName": "V客青年公寓桥头店", "districtId": 59, "count": 4, "lng": 113.805023, "lat": 22.68352, "flatTag": 2, "minPrice": 1380}, {"communityId": 141172, "comName": "伴山家园A栋", "districtId": 59, "count": 4, "lng": 113.855007, "lat": 22.596554, "flatTag": 2, "minPrice": 1280}, {"communityId": 141869, "comName": "禧邻公寓（流塘店）", "districtId": 59, "count": 4, "lng": 113.889939, "lat": 22.583989, "flatTag": 2, "minPrice": 1780}, {"communityId": 143917, "comName": "摩卡公寓", "districtId": 59, "count": 4, "lng": 113.821817, "lat": 22.729883, "flatTag": 2, "minPrice": 1180}, {"communityId": 196420, "comName": "鱼籽公寓（沙井万安）", "districtId": 59, "count": 4, "lng": 113.783366, "lat": 22.724006, "flatTag": 2, "minPrice": 900}, {"communityId": 215971, "comName": "碧海富通城一期", "districtId": 59, "count": 4, "lng": 113.858493, "lat": 22.563821, "flatTag": 1, "minPrice": 1750}, {"communityId": 240007, "comName": "魔方公寓深圳洪浪北店", "districtId": 59, "count": 4, "lng": 113.909872, "lat": 22.578805, "flatTag": 2, "minPrice": 2680}, {"communityId": 123578, "comName": "金港华庭", "districtId": 59, "count": 3, "lng": 113.861379, "lat": 22.58238, "flatTag": 1, "minPrice": 1770}, {"communityId": 123665, "comName": "中南花园", "districtId": 59, "count": 3, "lng": 113.900814, "lat": 22.550709, "flatTag": 1, "minPrice": 1720}, {"communityId": 123668, "comName": "泰华阳光海", "districtId": 59, "count": 3, "lng": 113.85812, "lat": 22.572078, "flatTag": 1, "minPrice": 1930}, {"communityId": 123694, "comName": "碧湾雅园", "districtId": 59, "count": 3, "lng": 113.869625, "lat": 22.564922, "flatTag": 1, "minPrice": 2020}, {"communityId": 123708, "comName": "金汇名园", "districtId": 59, "count": 3, "lng": 113.900478, "lat": 22.556065, "flatTag": 1, "minPrice": 1840}, {"communityId": 123735, "comName": "海天花园", "districtId": 59, "count": 3, "lng": 113.894004, "lat": 22.561493, "flatTag": 1, "minPrice": 1750}, {"communityId": 123752, "comName": "缤纷世界花园", "districtId": 59, "count": 3, "lng": 113.858414, "lat": 22.564067, "flatTag": 1, "minPrice": 1650}, {"communityId": 123754, "comName": "碧涛苑", "districtId": 59, "count": 3, "lng": 113.896932, "lat": 22.566605, "flatTag": 1, "minPrice": 1680}, {"communityId": 123792, "comName": "常盛花园", "districtId": 59, "count": 3, "lng": 113.895138, "lat": 22.56106, "flatTag": 1, "minPrice": 1500}, {"communityId": 123872, "comName": "宝城花园", "districtId": 59, "count": 3, "lng": 113.870266, "lat": 22.567996, "flatTag": 1, "minPrice": 1690}, {"communityId": 123875, "comName": "锦明花园", "districtId": 59, "count": 3, "lng": 113.855315, "lat": 22.577462, "flatTag": 1, "minPrice": 1770}, {"communityId": 134266, "comName": "暖寓", "districtId": 59, "count": 3, "lng": 113.897521, "lat": 22.577417, "flatTag": 2, "minPrice": 2180}, {"communityId": 134536, "comName": "V客青年公寓福永站", "districtId": 59, "count": 3, "lng": 113.807313, "lat": 22.675809, "flatTag": 2, "minPrice": 1680}, {"communityId": 139596, "comName": "宝悦青年公寓", "districtId": 59, "count": 3, "lng": 113.860035, "lat": 22.569802, "flatTag": 2, "minPrice": 1900}, {"communityId": 140715, "comName": "中信领航城", "districtId": 59, "count": 3, "lng": 113.85587, "lat": 22.60969, "flatTag": 1, "minPrice": 1430}, {"communityId": 140799, "comName": "滨海之家公寓西乡店", "districtId": 59, "count": 3, "lng": 113.868362, "lat": 22.576531, "flatTag": 2, "minPrice": 1380}, {"communityId": 143657, "comName": "金平公寓（西乡市场店）", "districtId": 59, "count": 3, "lng": 113.878024, "lat": 22.571548, "flatTag": 2, "minPrice": 880}, {"communityId": 144040, "comName": "暖寓（固戍家）", "districtId": 59, "count": 3, "lng": 113.85024, "lat": 22.595283, "flatTag": 2, "minPrice": 1880}, {"communityId": 144298, "comName": "小乐公寓（富华店）", "districtId": 59, "count": 3, "lng": 113.884621, "lat": 22.566766, "flatTag": 2, "minPrice": 1900}, {"communityId": 154896, "comName": "M+青年公寓", "districtId": 59, "count": 3, "lng": 113.811632, "lat": 22.701964, "flatTag": 2, "minPrice": 1000}, {"communityId": 155220, "comName": "锦绣江南", "districtId": 3400, "count": 3, "lng": 114.027084, "lat": 22.635729, "flatTag": 1, "minPrice": 1470}, {"communityId": 158980, "comName": "小屋公寓", "districtId": 59, "count": 3, "lng": 113.84845, "lat": 22.592519, "flatTag": 2, "minPrice": 950}, {"communityId": 170245, "comName": "翡翠公寓", "districtId": 59, "count": 3, "lng": 113.923156, "lat": 22.68602, "flatTag": 2, "minPrice": 1200}, {"communityId": 170386, "comName": "朗逸雅居", "districtId": 59, "count": 3, "lng": 113.890771, "lat": 22.580479, "flatTag": 2, "minPrice": 2100}, {"communityId": 172567, "comName": "汇景公寓（汇景轩店）", "districtId": 59, "count": 3, "lng": 113.889405, "lat": 22.57789, "flatTag": 2, "minPrice": 1080}, {"communityId": 187414, "comName": "四海一寓", "districtId": 59, "count": 3, "lng": 113.820734, "lat": 22.676053, "flatTag": 2, "minPrice": 1580}, {"communityId": 192943, "comName": "趣客公寓（海雅缤纷城店）", "districtId": 59, "count": 3, "lng": 113.90466, "lat": 22.562303, "flatTag": 2, "minPrice": 1680}, {"communityId": 195313, "comName": "城家公寓深圳西乡银田工业园区店", "districtId": 59, "count": 3, "lng": 113.861343, "lat": 22.584671, "flatTag": 2, "minPrice": 1780}, {"communityId": 226678, "comName": "碧海湾花园", "districtId": 59, "count": 3, "lng": 113.859803, "lat": 22.576852, "flatTag": 1, "minPrice": 1770}, {"communityId": 245284, "comName": "盈德居", "districtId": 59, "count": 3, "lng": 113.840261, "lat": 22.626803, "flatTag": 2, "minPrice": 1350}, {"communityId": 262198, "comName": "创佳居（松岗店）", "districtId": 59, "count": 3, "lng": 113.854904, "lat": 22.763013, "flatTag": 2, "minPrice": 1250}, {"communityId": 272866, "comName": "宝豪华庭", "districtId": 59, "count": 3, "lng": 113.896388, "lat": 22.567963, "flatTag": 1, "minPrice": 1590}, {"communityId": 277057, "comName": "禧邻公寓西湾店B栋", "districtId": 59, "count": 3, "lng": 113.84231, "lat": 22.590239, "flatTag": 2, "minPrice": 1080}, {"communityId": 281197, "comName": "金平公寓西乡大门分店", "districtId": 59, "count": 3, "lng": 113.884545, "lat": 22.577358, "flatTag": 2, "minPrice": 780}, {"communityId": 285247, "comName": "来休公寓（凤凰岗店）", "districtId": 59, "count": 3, "lng": 113.882018, "lat": 22.599172, "flatTag": 2, "minPrice": 1100}, {"communityId": 123581, "comName": "天悦龙庭", "districtId": 59, "count": 2, "lng": 113.88683, "lat": 22.556487, "flatTag": 1, "minPrice": 2240}, {"communityId": 123593, "comName": "丽景城", "districtId": 59, "count": 2, "lng": 113.885551, "lat": 22.587807, "flatTag": 1, "minPrice": 1490}, {"communityId": 123607, "comName": "菁英趣庭", "districtId": 59, "count": 2, "lng": 113.888716, "lat": 22.560065, "flatTag": 1, "minPrice": 2070}, {"communityId": 123615, "comName": "金泓凯旋城", "districtId": 59, "count": 2, "lng": 113.898145, "lat": 22.54789, "flatTag": 1, "minPrice": 1800}, {"communityId": 123643, "comName": "新安湖花园", "districtId": 59, "count": 2, "lng": 113.905578, "lat": 22.564686, "flatTag": 1, "minPrice": 1720}, {"communityId": 123669, "comName": "裕安花园", "districtId": 59, "count": 2, "lng": 113.903072, "lat": 22.566065, "flatTag": 1, "minPrice": 1680}, {"communityId": 123702, "comName": "泰华大厦", "districtId": 59, "count": 2, "lng": 113.899964, "lat": 22.572825, "flatTag": 1, "minPrice": 1720}, {"communityId": 123737, "comName": "中商花园", "districtId": 59, "count": 2, "lng": 113.898867, "lat": 22.553192, "flatTag": 1, "minPrice": 999}, {"communityId": 123772, "comName": "里仁府", "districtId": 59, "count": 2, "lng": 113.886055, "lat": 22.565125, "flatTag": 1, "minPrice": 2530}, {"communityId": 123848, "comName": "深航假日名居", "districtId": 59, "count": 2, "lng": 113.871409, "lat": 22.554147, "flatTag": 1, "minPrice": 1699}, {"communityId": 123869, "comName": "海滨新村", "districtId": 59, "count": 2, "lng": 113.869746, "lat": 22.563259, "flatTag": 1, "minPrice": 1300}, {"communityId": 123975, "comName": "玉湖湾", "districtId": 59, "count": 2, "lng": 113.849113, "lat": 22.57213, "flatTag": 1, "minPrice": 2110}, {"communityId": 124044, "comName": "浪漫港湾", "districtId": 59, "count": 2, "lng": 113.868469, "lat": 22.560004, "flatTag": 1, "minPrice": 1900}, {"communityId": 124083, "comName": "新源花园", "districtId": 59, "count": 2, "lng": 113.860859, "lat": 22.569298, "flatTag": 1, "minPrice": 1650}, {"communityId": 124119, "comName": "共乐华庭", "districtId": 59, "count": 2, "lng": 113.8242, "lat": 22.64744, "flatTag": 1, "minPrice": 1810}, {"communityId": 131245, "comName": "潜龙花园", "districtId": 3400, "count": 2, "lng": 114.042113, "lat": 22.612756, "flatTag": 1, "minPrice": 1840}, {"communityId": 135470, "comName": "V客青年公寓银田站", "districtId": 59, "count": 2, "lng": 113.859233, "lat": 22.586388, "flatTag": 2, "minPrice": 2380}, {"communityId": 136515, "comName": "禧邻公寓（银田店）", "districtId": 59, "count": 2, "lng": 113.859631, "lat": 22.587801, "flatTag": 2, "minPrice": 1780}, {"communityId": 137117, "comName": "伴山公寓B栋", "districtId": 59, "count": 2, "lng": 113.854806, "lat": 22.596674, "flatTag": 2, "minPrice": 1870}, {"communityId": 137773, "comName": "洪福雅苑", "districtId": 59, "count": 2, "lng": 113.893647, "lat": 22.560535, "flatTag": 1, "minPrice": 1782}, {"communityId": 138933, "comName": "就这家公寓", "districtId": 59, "count": 2, "lng": 113.842507, "lat": 22.600498, "flatTag": 2, "minPrice": 1580}, {"communityId": 141148, "comName": "国盛大厦", "districtId": 59, "count": 2, "lng": 113.894123, "lat": 22.559736, "flatTag": 2, "minPrice": 2380}, {"communityId": 144110, "comName": "十五号公寓", "districtId": 59, "count": 2, "lng": 113.850505, "lat": 22.60165, "flatTag": 2, "minPrice": 1100}, {"communityId": 144315, "comName": "三角公寓", "districtId": 59, "count": 2, "lng": 113.839148, "lat": 22.596954, "flatTag": 2, "minPrice": 1100}, {"communityId": 144364, "comName": "平顺公寓", "districtId": 59, "count": 2, "lng": 113.884985, "lat": 22.575208, "flatTag": 2, "minPrice": 1100}, {"communityId": 155240, "comName": "大信花园", "districtId": 3400, "count": 2, "lng": 114.021417, "lat": 22.649041, "flatTag": 1, "minPrice": 1810}, {"communityId": 160296, "comName": "富通城六期", "districtId": 59, "count": 2, "lng": 113.854756, "lat": 22.567488, "flatTag": 1, "minPrice": 1512}, {"communityId": 183166, "comName": "欢乐居公寓翻身店2号", "districtId": 59, "count": 2, "lng": 113.892232, "lat": 22.567322, "flatTag": 2, "minPrice": 1680}, {"communityId": 188998, "comName": "印象公寓", "districtId": 59, "count": 2, "lng": 113.868708, "lat": 22.569411, "flatTag": 2, "minPrice": 2180}, {"communityId": 231088, "comName": "创佳居公馆", "districtId": 59, "count": 2, "lng": 113.821932, "lat": 22.727989, "flatTag": 2, "minPrice": 1480}, {"communityId": 236038, "comName": "碧水龙庭", "districtId": 3400, "count": 2, "lng": 114.047563, "lat": 22.615935, "flatTag": 1, "minPrice": 2050}, {"communityId": 255619, "comName": "禧邻公寓西湾店", "districtId": 59, "count": 2, "lng": 113.842251, "lat": 22.58932, "flatTag": 2, "minPrice": 1280}, {"communityId": 273382, "comName": "FORU家公寓", "districtId": 59, "count": 2, "lng": 113.812021, "lat": 22.69066, "flatTag": 2, "minPrice": 1280}, {"communityId": 277633, "comName": "105公寓（三围店）", "districtId": 59, "count": 2, "lng": 113.843514, "lat": 22.616517, "flatTag": 2, "minPrice": 1200}, {"communityId": 287332, "comName": "鱼籽公寓（塘尾1号店）", "districtId": 59, "count": 2, "lng": 113.806947, "lat": 22.707336, "flatTag": 2, "minPrice": 750}, {"communityId": 287479, "comName": "鱼籽公寓（永靖店）", "districtId": 59, "count": 2, "lng": 113.809002, "lat": 22.695475, "flatTag": 2, "minPrice": 1500}, {"communityId": 123586, "comName": "富通好旺角", "districtId": 59, "count": 1, "lng": 113.88966, "lat": 22.558157, "flatTag": 1, "minPrice": 1780}, {"communityId": 123592, "comName": "西城上筑", "districtId": 59, "count": 1, "lng": 113.891803, "lat": 22.555814, "flatTag": 1, "minPrice": 1782}, {"communityId": 123628, "comName": "中信湾上六座", "districtId": 59, "count": 1, "lng": 113.856133, "lat": 22.56986, "flatTag": 1, "minPrice": 2020}, {"communityId": 123630, "comName": "凤凰雅居", "districtId": 59, "count": 1, "lng": 113.876985, "lat": 22.594661, "flatTag": 1, "minPrice": 4200}, {"communityId": 123657, "comName": "泰华明珠", "districtId": 59, "count": 1, "lng": 113.885284, "lat": 22.582037, "flatTag": 1, "minPrice": 4300}, {"communityId": 123698, "comName": "理想居", "districtId": 59, "count": 1, "lng": 113.887351, "lat": 22.566945, "flatTag": 1, "minPrice": 1900}, {"communityId": 123705, "comName": "尚都花园", "districtId": 59, "count": 1, "lng": 113.888111, "lat": 22.559869, "flatTag": 1, "minPrice": 2120}, {"communityId": 123731, "comName": "桃源居5区", "districtId": 59, "count": 1, "lng": 113.861, "lat": 22.618, "flatTag": 1, "minPrice": 4600}, {"communityId": 123784, "comName": "中航阳光新苑", "districtId": 3400, "count": 1, "lng": 114.0405, "lat": 22.601071, "flatTag": 1, "minPrice": 1870}, {"communityId": 123795, "comName": "石鸿花园", "districtId": 59, "count": 1, "lng": 113.901862, "lat": 22.554684, "flatTag": 1, "minPrice": 2110}, {"communityId": 123805, "comName": "宝新花园", "districtId": 59, "count": 1, "lng": 113.893723, "lat": 22.558336, "flatTag": 1, "minPrice": 1399}, {"communityId": 123808, "comName": "金成名苑", "districtId": 59, "count": 1, "lng": 113.887916, "lat": 22.562596, "flatTag": 1, "minPrice": 1700}, {"communityId": 123883, "comName": "蚝业雅苑", "districtId": 59, "count": 1, "lng": 113.865089, "lat": 22.576517, "flatTag": 1, "minPrice": 2020}, {"communityId": 123986, "comName": "阳光海湾花园", "districtId": 59, "count": 1, "lng": 113.858048, "lat": 22.571829, "flatTag": 1, "minPrice": 2142}, {"communityId": 123999, "comName": "中粮鸿云", "districtId": 59, "count": 1, "lng": 113.867761, "lat": 22.579497, "flatTag": 1, "minPrice": 2790}, {"communityId": 124158, "comName": "润恒尚园", "districtId": 59, "count": 1, "lng": 113.855998, "lat": 22.585713, "flatTag": 1, "minPrice": 1630}, {"communityId": 124183, "comName": "碧海富通城二期", "districtId": 59, "count": 1, "lng": 113.858461, "lat": 22.56809, "flatTag": 1, "minPrice": 1990}, {"communityId": 124224, "comName": "名门华府", "districtId": 59, "count": 1, "lng": 113.884265, "lat": 22.562996, "flatTag": 1, "minPrice": 6900}, {"communityId": 131137, "comName": "海湾明珠花园", "districtId": 59, "count": 1, "lng": 113.86073, "lat": 22.575151, "flatTag": 1, "minPrice": 2530}, {"communityId": 131138, "comName": "香缇湾花园", "districtId": 59, "count": 1, "lng": 113.85927, "lat": 22.57554, "flatTag": 1, "minPrice": 1499}, {"communityId": 131340, "comName": "常福楼", "districtId": 59, "count": 1, "lng": 113.904233, "lat": 22.553258, "flatTag": 1, "minPrice": 799}, {"communityId": 134258, "comName": "富通天骏", "districtId": 3400, "count": 1, "lng": 114.022804, "lat": 22.65044, "flatTag": 1, "minPrice": 1880}, {"communityId": 134543, "comName": "宜城明珠公寓", "districtId": 59, "count": 1, "lng": 113.822178, "lat": 22.67055, "flatTag": 2, "minPrice": 950}, {"communityId": 135500, "comName": "汇景公寓（坪洲店）", "districtId": 59, "count": 1, "lng": 113.877015, "lat": 22.593776, "flatTag": 2, "minPrice": 2190}, {"communityId": 136272, "comName": "臻爱家公寓B栋", "districtId": 59, "count": 1, "lng": 113.847784, "lat": 22.596572, "flatTag": 2, "minPrice": 2080}, {"communityId": 136273, "comName": "臻爱家公寓C栋", "districtId": 59, "count": 1, "lng": 113.847739, "lat": 22.596598, "flatTag": 2, "minPrice": 2180}, {"communityId": 136274, "comName": "臻爱家公寓D栋", "districtId": 59, "count": 1, "lng": 113.847731, "lat": 22.596517, "flatTag": 2, "minPrice": 2080}, {"communityId": 137137, "comName": "来休公寓（流塘店）", "districtId": 59, "count": 1, "lng": 113.890188, "lat": 22.578179, "flatTag": 2, "minPrice": 1980}, {"communityId": 137139, "comName": "伴山公寓C栋", "districtId": 59, "count": 1, "lng": 113.854848, "lat": 22.596649, "flatTag": 2, "minPrice": 1200}, {"communityId": 139592, "comName": "18Plus公寓", "districtId": 59, "count": 1, "lng": 113.80565, "lat": 22.686852, "flatTag": 2, "minPrice": 1700}, {"communityId": 139992, "comName": "来休公寓（共乐店）", "districtId": 59, "count": 1, "lng": 113.871764, "lat": 22.576156, "flatTag": 2, "minPrice": 1250}, {"communityId": 141169, "comName": "伴山家园D栋", "districtId": 59, "count": 1, "lng": 113.854957, "lat": 22.597122, "flatTag": 2, "minPrice": 1785}, {"communityId": 144335, "comName": "西乡蓝星公寓", "districtId": 59, "count": 1, "lng": 113.878319, "lat": 22.570928, "flatTag": 2, "minPrice": 1100}, {"communityId": 148572, "comName": "松香宜居", "districtId": 59, "count": 1, "lng": 113.838612, "lat": 22.77234, "flatTag": 2, "minPrice": 1600}, {"communityId": 150136, "comName": "永华壹号公寓", "districtId": 59, "count": 1, "lng": 113.887412, "lat": 22.579221, "flatTag": 2, "minPrice": 2200}, {"communityId": 158716, "comName": "宜城海棠公馆", "districtId": 59, "count": 1, "lng": 113.82641, "lat": 22.674511, "flatTag": 2, "minPrice": 2100}, {"communityId": 179350, "comName": "ET公寓", "districtId": 59, "count": 1, "lng": 113.846487, "lat": 22.595935, "flatTag": 2, "minPrice": 1700}, {"communityId": 180919, "comName": "沙安居", "districtId": 59, "count": 1, "lng": 113.812022, "lat": 22.732277, "flatTag": 2, "minPrice": 900}, {"communityId": 183223, "comName": "欢乐居翻身店1号楼", "districtId": 59, "count": 1, "lng": 113.89192, "lat": 22.564804, "flatTag": 2, "minPrice": 1680}, {"communityId": 188095, "comName": "茉莉花公寓B栋", "districtId": 59, "count": 1, "lng": 113.847572, "lat": 22.594239, "flatTag": 2, "minPrice": 2300}, {"communityId": 189190, "comName": "家华公寓D栋", "districtId": 59, "count": 1, "lng": 113.899909, "lat": 22.578925, "flatTag": 2, "minPrice": 2380}, {"communityId": 189940, "comName": "西湾青年之家（A栋）", "districtId": 59, "count": 1, "lng": 113.838502, "lat": 22.592292, "flatTag": 2, "minPrice": 1650}, {"communityId": 194437, "comName": "西湾公园12号", "districtId": 59, "count": 1, "lng": 113.841877, "lat": 22.600739, "flatTag": 2, "minPrice": 1250}, {"communityId": 196108, "comName": "礼寓", "districtId": 59, "count": 1, "lng": 113.826283, "lat": 22.64861, "flatTag": 2, "minPrice": 2130}, {"communityId": 202003, "comName": "66公馆", "districtId": 59, "count": 1, "lng": 113.827002, "lat": 22.64847, "flatTag": 1, "minPrice": 1980}, {"communityId": 203038, "comName": "来休公寓（西乡河店）", "districtId": 59, "count": 1, "lng": 113.879596, "lat": 22.581131, "flatTag": 2, "minPrice": 1880}, {"communityId": 203761, "comName": "星期五公寓", "districtId": 59, "count": 1, "lng": 113.839884, "lat": 22.621063, "flatTag": 2, "minPrice": 1699}, {"communityId": 211102, "comName": "柠檬公寓", "districtId": 59, "count": 1, "lng": 113.865483, "lat": 22.578229, "flatTag": 2, "minPrice": 1300}, {"communityId": 213265, "comName": "凤凰岗北一巷23号", "districtId": 59, "count": 1, "lng": 113.877927, "lat": 22.5972, "flatTag": 2, "minPrice": 550}, {"communityId": 217414, "comName": "居家公寓", "districtId": 59, "count": 1, "lng": 113.845397, "lat": 22.587856, "flatTag": 2, "minPrice": 1380}, {"communityId": 222751, "comName": "华盛A栋", "districtId": 59, "count": 1, "lng": 113.921406, "lat": 22.585608, "flatTag": 2, "minPrice": 1450}, {"communityId": 222757, "comName": "华盛B栋", "districtId": 59, "count": 1, "lng": 113.917632, "lat": 22.581071, "flatTag": 2, "minPrice": 1650}, {"communityId": 237190, "comName": "新新公寓", "districtId": 59, "count": 1, "lng": 113.873691, "lat": 22.579491, "flatTag": 2, "minPrice": 1350}, {"communityId": 238045, "comName": "寓见里网咖公寓", "districtId": 59, "count": 1, "lng": 113.79959, "lat": 22.679274, "flatTag": 2, "minPrice": 1200}, {"communityId": 239260, "comName": "河滨阁", "districtId": 59, "count": 1, "lng": 113.908996, "lat": 22.564801, "flatTag": 1, "minPrice": 1630}, {"communityId": 241048, "comName": "庭苑公寓35号店", "districtId": 59, "count": 1, "lng": 113.904968, "lat": 22.579395, "flatTag": 2, "minPrice": 1999}, {"communityId": 244615, "comName": "南昌路1号", "districtId": 59, "count": 1, "lng": 113.843491, "lat": 22.592518, "flatTag": 2, "minPrice": 1100}, {"communityId": 251725, "comName": "特发和平里一期", "districtId": 3400, "count": 1, "lng": 114.012743, "lat": 22.643322, "flatTag": 1, "minPrice": 1720}, {"communityId": 252229, "comName": "颐合花园", "districtId": 59, "count": 1, "lng": 113.871864, "lat": 22.580284, "flatTag": 1, "minPrice": 1720}, {"communityId": 254872, "comName": "龙腾公寓", "districtId": 59, "count": 1, "lng": 113.877185, "lat": 22.582245, "flatTag": 1, "minPrice": 2000}, {"communityId": 257944, "comName": "星惺公寓（草围店）", "districtId": 59, "count": 1, "lng": 113.840205, "lat": 22.622158, "flatTag": 2, "minPrice": 1200}, {"communityId": 270769, "comName": "富盛苑", "districtId": 59, "count": 1, "lng": 113.895541, "lat": 22.564371, "flatTag": 1, "minPrice": 1650}, {"communityId": 271267, "comName": "庭苑万36区岭下花园19巷5号", "districtId": 59, "count": 1, "lng": 113.902522, "lat": 22.581775, "flatTag": 2, "minPrice": 4300}, {"communityId": 272503, "comName": "清湾公寓永丰87号店", "districtId": 59, "count": 1, "lng": 113.867224, "lat": 22.572552, "flatTag": 2, "minPrice": 1500}, {"communityId": 272893, "comName": "富怡花园", "districtId": 59, "count": 1, "lng": 113.899138, "lat": 22.55966, "flatTag": 1, "minPrice": 2000}, {"communityId": 272896, "comName": "富华花园", "districtId": 59, "count": 1, "lng": 113.884976, "lat": 22.566769, "flatTag": 1, "minPrice": 1870}, {"communityId": 279703, "comName": "小航嘉园轻铁西店", "districtId": 59, "count": 1, "lng": 113.869087, "lat": 22.568724, "flatTag": 2, "minPrice": 1580}, {"communityId": 284071, "comName": "鸿森公寓（上合店）", "districtId": 59, "count": 1, "lng": 113.905505, "lat": 22.579467, "flatTag": 2, "minPrice": 2300}, {"communityId": 143798, "comName": "万科四季花城", "districtId": 3400, "count": 19, "lng": 114.060009, "lat": 22.625798, "flatTag": 1, "minPrice": 1630}, {"communityId": 145077, "comName": "柏尚里公寓", "districtId": 60, "count": 9, "lng": 114.072275, "lat": 22.656378, "flatTag": 2, "minPrice": 2280}, {"communityId": 144608, "comName": "德弘公寓", "districtId": 60, "count": 8, "lng": 114.061569, "lat": 22.61876, "flatTag": 2, "minPrice": 1880}, {"communityId": 216751, "comName": "许愿家公寓", "districtId": 60, "count": 8, "lng": 114.275243, "lat": 22.728182, "flatTag": 2, "minPrice": 1580}, {"communityId": 137224, "comName": "苏鹿公寓双龙店", "districtId": 60, "count": 7, "lng": 114.275665, "lat": 22.728862, "flatTag": 2, "minPrice": 1311}, {"communityId": 139755, "comName": "乐窝公寓", "districtId": 60, "count": 7, "lng": 114.066926, "lat": 22.617726, "flatTag": 2, "minPrice": 2000}, {"communityId": 173506, "comName": "创寓坂田店", "districtId": 60, "count": 6, "lng": 114.077055, "lat": 22.619909, "flatTag": 2, "minPrice": 2200}, {"communityId": 196456, "comName": "深丰公寓（塘坑总店A区）", "districtId": 60, "count": 5, "lng": 114.19264, "lat": 22.644329, "flatTag": 2, "minPrice": 1680}, {"communityId": 277465, "comName": "福星1号", "districtId": 60, "count": 5, "lng": 114.123761, "lat": 22.688677, "flatTag": 2, "minPrice": 750}, {"communityId": 137405, "comName": "龙岗三合村", "districtId": 60, "count": 4, "lng": 114.279618, "lat": 22.727572, "flatTag": 2, "minPrice": 450}, {"communityId": 139083, "comName": "坂田幸福里公寓", "districtId": 60, "count": 4, "lng": 114.067147, "lat": 22.61818, "flatTag": 2, "minPrice": 1800}, {"communityId": 188329, "comName": "小七洋房-六壹家", "districtId": 60, "count": 4, "lng": 114.081884, "lat": 22.629872, "flatTag": 2, "minPrice": 1550}, {"communityId": 195310, "comName": "城家公寓深圳龙城广场地铁站店", "districtId": 60, "count": 4, "lng": 114.257327, "lat": 22.716189, "flatTag": 2, "minPrice": 1400}, {"communityId": 232216, "comName": "禧邻公寓（丹竹头店）B1栋", "districtId": 60, "count": 4, "lng": 114.144647, "lat": 22.613664, "flatTag": 2, "minPrice": 1350}, {"communityId": 232243, "comName": "禧邻公寓（丹竹头店）B2栋", "districtId": 60, "count": 4, "lng": 114.144647, "lat": 22.613664, "flatTag": 2, "minPrice": 1390}, {"communityId": 242485, "comName": "具客青年公寓", "districtId": 60, "count": 4, "lng": 114.072929, "lat": 22.637402, "flatTag": 2, "minPrice": 1180}, {"communityId": 245569, "comName": "鸿荣源尚峰", "districtId": 60, "count": 4, "lng": 114.138139, "lat": 22.625444, "flatTag": 1, "minPrice": 1599}, {"communityId": 248233, "comName": "双龙B5栋", "districtId": 60, "count": 4, "lng": 114.341253, "lat": 22.651276, "flatTag": 2, "minPrice": 450}, {"communityId": 279409, "comName": "众创公馆7栋", "districtId": 60, "count": 4, "lng": 114.14496, "lat": 22.686052, "flatTag": 2, "minPrice": 1230}, {"communityId": 138879, "comName": "18plus公寓（横岗）", "districtId": 60, "count": 3, "lng": 114.21878, "lat": 22.667561, "flatTag": 2, "minPrice": 1850}, {"communityId": 154780, "comName": "青年公寓3号楼", "districtId": 60, "count": 3, "lng": 114.12691, "lat": 22.670618, "flatTag": 2, "minPrice": 1610}, {"communityId": 187588, "comName": "岭南公寓", "districtId": 60, "count": 3, "lng": 114.193745, "lat": 22.637489, "flatTag": 2, "minPrice": 1280}, {"communityId": 233701, "comName": "双龙B一栋", "districtId": 60, "count": 3, "lng": 114.282436, "lat": 22.726717, "flatTag": 2, "minPrice": 450}, {"communityId": 242752, "comName": "CT酒店公寓", "districtId": 60, "count": 3, "lng": 114.123218, "lat": 22.691873, "flatTag": 2, "minPrice": 1400}, {"communityId": 251692, "comName": "春华四季园", "districtId": 3400, "count": 3, "lng": 114.051929, "lat": 22.620822, "flatTag": 1, "minPrice": 1810}, {"communityId": 257479, "comName": "鼎泰公寓（黄金坑店）", "districtId": 60, "count": 3, "lng": 114.143131, "lat": 22.608521, "flatTag": 2, "minPrice": 980}, {"communityId": 272434, "comName": "粤鹏湾公寓扬马店", "districtId": 60, "count": 3, "lng": 114.07115, "lat": 22.630736, "flatTag": 2, "minPrice": 880}, {"communityId": 285409, "comName": "英郡年华", "districtId": 60, "count": 3, "lng": 114.149946, "lat": 22.616634, "flatTag": 1, "minPrice": 1359}, {"communityId": 137301, "comName": "富乐公寓", "districtId": 60, "count": 2, "lng": 114.256326, "lat": 22.721366, "flatTag": 2, "minPrice": 1300}, {"communityId": 139530, "comName": "星窝创客公寓", "districtId": 60, "count": 2, "lng": 114.113691, "lat": 22.630052, "flatTag": 2, "minPrice": 2280}, {"communityId": 142819, "comName": "新峰易公寓龙城店", "districtId": 60, "count": 2, "lng": 114.253929, "lat": 22.711761, "flatTag": 2, "minPrice": 1600}, {"communityId": 187081, "comName": "小七洋房-一山家", "districtId": 60, "count": 2, "lng": 114.08369, "lat": 22.630473, "flatTag": 2, "minPrice": 1880}, {"communityId": 192166, "comName": "青年公寓一座", "districtId": 60, "count": 2, "lng": 114.127946, "lat": 22.669407, "flatTag": 2, "minPrice": 1600}, {"communityId": 197014, "comName": "优家国际青年社区坂田社区", "districtId": 60, "count": 2, "lng": 114.059695, "lat": 22.662584, "flatTag": 2, "minPrice": 4600}, {"communityId": 207460, "comName": "新木村公寓", "districtId": 60, "count": 2, "lng": 114.128176, "lat": 22.671751, "flatTag": 2, "minPrice": 1600}, {"communityId": 230314, "comName": "魔方公寓深圳坂田店", "districtId": 60, "count": 2, "lng": 114.07459, "lat": 22.622949, "flatTag": 2, "minPrice": 2900}, {"communityId": 237205, "comName": "魔方公寓深圳坂田杨美店", "districtId": 60, "count": 2, "lng": 114.076506, "lat": 22.620022, "flatTag": 2, "minPrice": 2900}, {"communityId": 237376, "comName": "深丰公寓（塘坑总店B区）", "districtId": 60, "count": 2, "lng": 114.192553, "lat": 22.644998, "flatTag": 2, "minPrice": 1980}, {"communityId": 237397, "comName": "深丰公寓（塘坑总店C区）", "districtId": 60, "count": 2, "lng": 114.192415, "lat": 22.644309, "flatTag": 2, "minPrice": 1780}, {"communityId": 240256, "comName": "魔方公寓深圳横岗店", "districtId": 60, "count": 2, "lng": 114.203362, "lat": 22.650945, "flatTag": 2, "minPrice": 2280}, {"communityId": 245257, "comName": "魔方公寓深圳坂田利金城店", "districtId": 60, "count": 2, "lng": 114.056851, "lat": 22.636579, "flatTag": 2, "minPrice": 2750}, {"communityId": 271714, "comName": "聚顺公寓E3栋", "districtId": 60, "count": 2, "lng": 114.244963, "lat": 22.695248, "flatTag": 2, "minPrice": 680}, {"communityId": 283087, "comName": "粤鹏湾公寓吉华店", "districtId": 60, "count": 2, "lng": 114.081481, "lat": 22.642102, "flatTag": 2, "minPrice": 1380}, {"communityId": 137899, "comName": "如意·公寓", "districtId": 60, "count": 1, "lng": 114.239824, "lat": 22.693876, "flatTag": 2, "minPrice": 650}, {"communityId": 143107, "comName": "昌盛公寓", "districtId": 60, "count": 1, "lng": 114.061478, "lat": 22.628042, "flatTag": 2, "minPrice": 1000}, {"communityId": 143250, "comName": "贤合小区", "districtId": 60, "count": 1, "lng": 114.197434, "lat": 22.649255, "flatTag": 2, "minPrice": 800}, {"communityId": 143653, "comName": "创寓(大运店)48栋", "districtId": 60, "count": 1, "lng": 114.228323, "lat": 22.683538, "flatTag": 2, "minPrice": 1500}, {"communityId": 143656, "comName": "创寓(大运店)50栋", "districtId": 60, "count": 1, "lng": 114.228323, "lat": 22.683538, "flatTag": 2, "minPrice": 1500}, {"communityId": 154744, "comName": "青年公寓2号楼", "districtId": 60, "count": 1, "lng": 114.126925, "lat": 22.67062, "flatTag": 2, "minPrice": 1840}, {"communityId": 154788, "comName": "青年公寓4号楼", "districtId": 60, "count": 1, "lng": 114.126919, "lat": 22.670631, "flatTag": 2, "minPrice": 1100}, {"communityId": 172348, "comName": "新峰易公寓盛平店", "districtId": 60, "count": 1, "lng": 114.254835, "lat": 22.730278, "flatTag": 2, "minPrice": 1700}, {"communityId": 202765, "comName": "禧邻公寓（丹竹头店）A栋", "districtId": 60, "count": 1, "lng": 114.143588, "lat": 22.612881, "flatTag": 2, "minPrice": 1780}, {"communityId": 211297, "comName": "易峰公寓（盛平店）", "districtId": 60, "count": 1, "lng": 114.255586, "lat": 22.731026, "flatTag": 2, "minPrice": 1400}, {"communityId": 217873, "comName": "禧邻公寓（丹竹头店）C栋", "districtId": 60, "count": 1, "lng": 114.142892, "lat": 22.613297, "flatTag": 2, "minPrice": 2380}, {"communityId": 232249, "comName": "众创公馆", "districtId": 60, "count": 1, "lng": 114.144529, "lat": 22.686716, "flatTag": 2, "minPrice": 1260}, {"communityId": 257464, "comName": "粤鹏湾公寓麒麟店", "districtId": 60, "count": 1, "lng": 114.066396, "lat": 22.608785, "flatTag": 2, "minPrice": 1080}, {"communityId": 271786, "comName": "双龙C出口", "districtId": 60, "count": 1, "lng": 114.277506, "lat": 22.730723, "flatTag": 1, "minPrice": 700}, {"communityId": 272416, "comName": "粤鹏湾公寓杨美店", "districtId": 60, "count": 1, "lng": 114.079051, "lat": 22.628775, "flatTag": 2, "minPrice": 1480}, {"communityId": 133565, "comName": "七里香榭花园", "districtId": 3400, "count": 6, "lng": 114.025563, "lat": 22.630618, "flatTag": 1, "minPrice": 1400}, {"communityId": 277780, "comName": "金庸阁", "districtId": 3400, "count": 6, "lng": 114.021048, "lat": 22.650067, "flatTag": 1, "minPrice": 1600}, {"communityId": 131226, "comName": "御龙华庭", "districtId": 3400, "count": 5, "lng": 114.016678, "lat": 22.637688, "flatTag": 1, "minPrice": 1180}, {"communityId": 239128, "comName": "18plus公寓红山店C座", "districtId": 3400, "count": 5, "lng": 114.022867, "lat": 22.62605, "flatTag": 2, "minPrice": 2300}, {"communityId": 134263, "comName": "东华明珠园", "districtId": 3400, "count": 4, "lng": 114.031916, "lat": 22.653238, "flatTag": 1, "minPrice": 1200}, {"communityId": 140927, "comName": "Cool酷社区", "districtId": 3400, "count": 4, "lng": 114.039195, "lat": 22.63738, "flatTag": 2, "minPrice": 2380}, {"communityId": 144118, "comName": "莱蒙水榭春天二期", "districtId": 3400, "count": 4, "lng": 114.024796, "lat": 22.627676, "flatTag": 1, "minPrice": 1500}, {"communityId": 150228, "comName": "优客国际青年公寓", "districtId": 3400, "count": 4, "lng": 114.030233, "lat": 22.624514, "flatTag": 2, "minPrice": 2088}, {"communityId": 154176, "comName": "窝巢梦享社区", "districtId": 3400, "count": 4, "lng": 114.035694, "lat": 22.600627, "flatTag": 2, "minPrice": 1880}, {"communityId": 208543, "comName": "18plus公寓红山店", "districtId": 3400, "count": 4, "lng": 114.022431, "lat": 22.625961, "flatTag": 2, "minPrice": 1600}, {"communityId": 259675, "comName": "窝酷社区", "districtId": 3400, "count": 4, "lng": 114.043569, "lat": 22.612422, "flatTag": 2, "minPrice": 2680}, {"communityId": 134261, "comName": "美丽AAA花园", "districtId": 3400, "count": 3, "lng": 114.020565, "lat": 22.65384, "flatTag": 1, "minPrice": 1400}, {"communityId": 195835, "comName": "优优公寓", "districtId": 3400, "count": 3, "lng": 114.036375, "lat": 22.666014, "flatTag": 2, "minPrice": 1550}, {"communityId": 242365, "comName": "星河传奇", "districtId": 3400, "count": 3, "lng": 114.020216, "lat": 22.632662, "flatTag": 1, "minPrice": 1590}, {"communityId": 255076, "comName": "德亿青年公寓", "districtId": 3400, "count": 3, "lng": 114.004454, "lat": 22.661626, "flatTag": 2, "minPrice": 700}, {"communityId": 131939, "comName": "中航天逸", "districtId": 3400, "count": 2, "lng": 114.02116, "lat": 22.627926, "flatTag": 1, "minPrice": 1600}, {"communityId": 133202, "comName": "9号公寓", "districtId": 3400, "count": 2, "lng": 114.034909, "lat": 22.667833, "flatTag": 2, "minPrice": 1599}, {"communityId": 134258, "comName": "富通天骏", "districtId": 3400, "count": 2, "lng": 114.022804, "lat": 22.65044, "flatTag": 1, "minPrice": 1800}, {"communityId": 135132, "comName": "日出印象花园", "districtId": 3400, "count": 2, "lng": 114.027762, "lat": 22.631472, "flatTag": 1, "minPrice": 1332}, {"communityId": 144547, "comName": "维洛雅公寓", "districtId": 3400, "count": 2, "lng": 114.037948, "lat": 22.60548, "flatTag": 2, "minPrice": 1800}, {"communityId": 257554, "comName": "粤鹏湾公寓元芬店", "districtId": 3400, "count": 2, "lng": 114.00498, "lat": 22.655243, "flatTag": 2, "minPrice": 1280}, {"communityId": 257617, "comName": "粤鹏湾公寓景龙店", "districtId": 3400, "count": 2, "lng": 114.01995, "lat": 22.657397, "flatTag": 2, "minPrice": 1480}, {"communityId": 131249, "comName": "特发和平里", "districtId": 3400, "count": 1, "lng": 114.012248, "lat": 22.642844, "flatTag": 1, "minPrice": 1280}, {"communityId": 131568, "comName": "鹏华香域花园", "districtId": 3400, "count": 1, "lng": 114.025672, "lat": 22.613956, "flatTag": 1, "minPrice": 1467}, {"communityId": 132448, "comName": "翠岭华庭", "districtId": 3400, "count": 1, "lng": 114.04692, "lat": 22.593416, "flatTag": 1, "minPrice": 2412}, {"communityId": 134868, "comName": "幸福城", "districtId": 3400, "count": 1, "lng": 114.037399, "lat": 22.65931, "flatTag": 1, "minPrice": 1400}, {"communityId": 135130, "comName": "梅龙阁", "districtId": 3400, "count": 1, "lng": 114.046333, "lat": 22.593756, "flatTag": 1, "minPrice": 1780}, {"communityId": 135962, "comName": "轻语公寓", "districtId": 3400, "count": 1, "lng": 114.0439, "lat": 22.607942, "flatTag": 2, "minPrice": 2000}, {"communityId": 136182, "comName": "烽厨公寓C", "districtId": 3400, "count": 1, "lng": 114.064639, "lat": 22.730645, "flatTag": 2, "minPrice": 900}, {"communityId": 136184, "comName": "烽厨公寓E", "districtId": 3400, "count": 1, "lng": 114.064675, "lat": 22.730579, "flatTag": 2, "minPrice": 900}, {"communityId": 136799, "comName": "烽厨公寓B", "districtId": 3400, "count": 1, "lng": 114.064648, "lat": 22.730354, "flatTag": 2, "minPrice": 1500}, {"communityId": 137407, "comName": "伟家公寓（东一新村9栋）", "districtId": 3400, "count": 1, "lng": 114.024545, "lat": 22.638882, "flatTag": 2, "minPrice": 1400}, {"communityId": 139553, "comName": "莱蒙水榭春天五期", "districtId": 3400, "count": 1, "lng": 114.028259, "lat": 22.623989, "flatTag": 1, "minPrice": 2280}, {"communityId": 140578, "comName": "锦绣御园", "districtId": 3400, "count": 1, "lng": 114.031045, "lat": 22.658433, "flatTag": 1, "minPrice": 1700}, {"communityId": 140849, "comName": "特发和平里二期", "districtId": 3400, "count": 1, "lng": 114.010904, "lat": 22.642403, "flatTag": 1, "minPrice": 1700}, {"communityId": 142466, "comName": "莱蒙水榭春天三期", "districtId": 3400, "count": 1, "lng": 114.02459, "lat": 22.628663, "flatTag": 1, "minPrice": 1647}, {"communityId": 241159, "comName": "中环阁", "districtId": 3400, "count": 1, "lng": 114.020651, "lat": 22.651687, "flatTag": 1, "minPrice": 1200}, {"communityId": 251692, "comName": "春华四季园", "districtId": 3400, "count": 1, "lng": 114.051929, "lat": 22.620822, "flatTag": 1, "minPrice": 2110}, {"communityId": 281878, "comName": "37度公寓（民治牛栏前店）", "districtId": 3400, "count": 1, "lng": 114.037089, "lat": 22.63684, "flatTag": 2, "minPrice": 1200}, {"communityId": 286447, "comName": "深宝公寓", "districtId": 3406, "count": 6, "lng": 113.882651, "lat": 22.784479, "flatTag": 2, "minPrice": 580}, {"communityId": 141998, "comName": "禧邻公寓（黄麻布店）", "districtId": 3406, "count": 3, "lng": 113.861727, "lat": 22.659398, "flatTag": 2, "minPrice": 1180}, {"communityId": 197380, "comName": "窝巢梦享社区光明店", "districtId": 3406, "count": 3, "lng": 113.904968, "lat": 22.732876, "flatTag": 2, "minPrice": 1580}, {"communityId": 154504, "comName": "合福公寓", "districtId": 3406, "count": 1, "lng": 113.88348, "lat": 22.783681, "flatTag": 2, "minPrice": 700}, {"communityId": 163824, "comName": "张屋新村十六巷9号（鸿兴物业）", "districtId": 3406, "count": 1, "lng": 113.935251, "lat": 22.735049, "flatTag": 2, "minPrice": 550}]